City_ID,City,Lat,Lng,Max Temp,Humidity,Cloudiness,Wind Speed,Country,Date
0,perevolotskiy,51.8763,54.1938,282.95,64,3,1.4,RU,1682305475
1,waitangi,-43.9535,-176.5597,284.72,86,100,1.34,NZ,1682305476
2,isafjordur,66.0755,-23.124,273.34,62,81,2.93,IS,1682305476
3,grytviken,-54.2811,-36.5092,274.79,80,81,8.19,GS,1682305477
4,bilibino,68.0546,166.4372,274.14,77,2,2.4,RU,1682305477
5,tiksi,71.6872,128.8694,266.85,87,32,2.66,RU,1682305477
6,bethel,41.3712,-73.414,283.32,87,40,0.45,US,1682305478
7,anadyr,64.75,177.4833,268.43,79,40,12.0,RU,1682305479
8,kyakhta,50.3508,106.4494,278.76,27,94,5.75,RU,1682305480
9,walvis bay,-22.9575,14.5053,290.42,88,87,1.54,NA,1682305480
10,fale old settlement,-9.3852,-171.2468,301.93,72,18,1.51,TK,1682305480
11,eenhana,-17.4667,16.3333,294.56,66,40,2.77,NA,1682305481
12,prince george,53.9166,-122.753,279.96,98,100,2.06,CA,1682305231
13,port elizabeth,-33.918,25.5701,291.66,92,20,3.09,ZA,1682305482
14,adamstown,-25.066,-130.1015,297.87,86,97,6.58,PN,1682305482
15,vicosa,-20.7539,-42.8819,287.7,94,34,2.34,BR,1682305483
16,klaksvik,62.2266,-6.589,275.66,63,100,11.01,FO,1682305483
17,iskateley,67.6803,53.1512,266.33,91,23,7.01,RU,1682305484
18,udachny,66.4167,112.4,269.47,82,75,1.25,RU,1682305390
19,jalal-abad,40.9333,73.0,293.95,35,64,2.1,KG,1682305335
20,namibe,-15.1961,12.1522,297.45,67,13,3.09,AO,1682305485
21,wailua homesteads,22.0669,-159.378,298.59,85,100,4.63,US,1682305486
22,dangriga,16.9692,-88.2321,298.83,78,54,4.0,BZ,1682305486
23,imbituba,-28.24,-48.6703,295.29,90,46,3.08,BR,1682305261
24,longyearbyen,78.2186,15.6401,264.06,73,0,2.06,SJ,1682305487
25,chinde,26.8418,88.0763,291.62,59,52,1.97,NP,1682305487
26,anar darah,32.7587,61.654,295.75,17,40,3.19,AF,1682305488
27,codrington,-38.2667,141.9667,295.81,42,0,3.57,AU,1682305488
28,afaahiti,-17.75,-149.2833,299.08,87,100,4.89,PF,1682305489
29,maisi,43.0395,41.2621,282.7,89,100,0.95,GE,1682305489
30,mili,6.0815,171.735,301.27,79,85,8.83,MH,1682305490
31,nova vicosa,-17.8919,-39.3719,297.86,72,91,5.78,BR,1682305302
32,blackmans bay,-43.0167,147.3167,292.22,47,3,0.65,AU,1682305491
33,bandarbeyla,9.4942,50.8122,300.57,68,18,1.37,SO,1682305491
34,yellowknife,62.456,-114.3525,281.44,53,20,3.6,CA,1682305287
35,buala,-8.145,159.5921,302.96,70,36,2.07,SB,1682305492
36,chelsea,51.4875,-0.1694,281.62,93,22,2.06,GB,1682305243
37,mizan teferi,6.9833,35.5833,289.21,97,99,1.17,ET,1682305493
38,ugoofaaru,5.6667,73.0,302.58,69,100,5.44,MV,1682305493
39,east london,-33.0153,27.9116,293.28,55,100,1.91,ZA,1682305494
40,port lincoln,-34.7333,135.8667,295.58,50,0,4.91,AU,1682305494
41,badger,64.8,-147.5333,265.66,64,100,8.75,US,1682305495
42,talnakh,69.4865,88.3972,274.38,83,97,3.72,RU,1682305495
43,port mathurin,-19.6833,63.4167,299.41,80,20,8.84,MU,1682305495
44,merizo village,13.2658,144.6691,304.03,83,95,7.22,GU,1682305496
45,dudinka,69.4058,86.1778,274.61,81,61,6.11,RU,1682305496
46,margaret river,-33.95,115.0667,287.58,63,80,7.14,AU,1682305407
47,kalinkavichy,52.1323,29.3257,282.88,72,83,2.57,BY,1682305497
48,gisborne,-38.6533,178.0042,285.92,69,98,9.4,NZ,1682305498
49,alaghsas,17.0187,8.0168,300.66,8,67,2.53,NE,1682305498
50,vilyuchinsk,52.9306,158.4028,278.3,76,99,8.9,RU,1682305499
51,thompson,55.7435,-97.8558,273.24,51,20,1.54,CA,1682305236
52,bredasdorp,-34.5322,20.0403,291.45,85,100,2.43,ZA,1682305499
53,port-aux-francais,-49.35,70.2167,277.41,63,100,14.31,TF,1682305500
54,ushuaia,-54.8,-68.3,278.96,61,20,1.03,AR,1682305500
55,broome,42.2506,-75.833,278.54,94,100,0.45,US,1682305501
56,puerto natales,-51.7236,-72.4875,280.11,98,100,0.59,CL,1682305502
57,ust'-ilimsk,58.0006,102.6619,276.31,57,100,3.57,RU,1682305503
58,thunder bay,48.4001,-89.3168,273.14,86,100,1.54,CA,1682305239
59,kerikeri,-35.2268,173.9474,291.43,60,1,5.36,NZ,1682305336
60,dudley park,-34.8801,138.5794,301.42,40,0,5.66,AU,1682305505
61,porto seguro,-16.4497,-39.0647,295.44,94,100,2.57,BR,1682305314
62,hovd,48.0056,91.6419,277.92,34,100,1.54,MN,1682305506
63,yung shue wan,22.2333,114.1167,301.8,86,73,0.45,HK,1682305507
64,berezovo,63.9381,65.0419,270.11,68,5,6.6,RU,1682305508
65,puerto ayora,-0.7393,-90.3518,299.01,91,45,2.68,EC,1682305509
66,valparaiso,-33.0393,-71.6273,289.82,64,75,2.06,CL,1682305510
67,olonkinbyen,70.9221,-8.7187,268.47,66,90,7.65,SJ,1682305511
68,shimoda,34.6667,138.95,288.35,80,100,7.64,JP,1682305511
69,contai,21.7786,87.7536,303.65,54,5,3.31,IN,1682305512
70,kolonia town,6.964,158.206,303.15,74,100,2.06,FM,1682305512
71,ribeira grande,38.5167,-28.7,290.8,96,100,7.6,PT,1682305513
72,alesund,62.4723,6.1549,276.23,84,75,10.8,NO,1682305515
73,petropavlovsk-kamchatsky,53.0452,158.6483,277.48,48,75,5.0,RU,1682305516
74,cidreira,-30.1811,-50.2056,294.29,83,100,6.58,BR,1682305516
75,qaqortoq,60.7167,-46.0333,273.65,80,96,1.19,GL,1682305517
76,hawaiian paradise park,19.5933,-154.9731,299.11,77,100,4.63,US,1682305518
77,ust-nera,64.5667,143.2,269.66,88,100,3.36,RU,1682305519
78,katsuura,35.1333,140.3,284.24,67,100,6.6,JP,1682305519
79,bardai,11.65,7.2333,296.39,71,100,5.42,NG,1682305520
80,papatowai,-46.5619,169.4708,285.16,60,45,8.19,NZ,1682305521
81,tabou,4.423,-7.3528,299.25,87,100,1.81,CI,1682305522
82,titay,7.8125,122.5344,303.35,65,97,1.88,PH,1682305522
83,aasiaat,68.7098,-52.8699,272.12,99,100,1.82,GL,1682305523
84,avarua,-21.2078,-159.775,299.18,61,57,4.63,CK,1682305524
85,nova sintra,14.8667,-24.7167,293.29,75,3,10.81,CV,1682305524
86,susuman,62.7833,148.1667,270.05,72,100,7.61,RU,1682305525
87,asmara,15.3333,38.9333,288.96,62,5,0.36,ER,1682305526
88,peterborough,52.5736,-0.2478,279.44,87,20,4.12,GB,1682305477
89,cabo san lucas,22.8909,-109.9124,298.76,64,20,2.06,MX,1682305468
90,taltal,-25.4,-70.4833,290.92,83,0,1.32,CL,1682305528
91,jamestown,42.097,-79.2353,278.92,87,100,2.06,US,1682305528
92,tamiahua,21.2667,-97.45,298.59,97,44,5.99,MX,1682305529
93,kirensk,57.7853,108.1119,275.23,53,28,2.36,RU,1682305530
94,puerto madryn,-42.7692,-65.0385,291.54,46,100,4.33,AR,1682305530
95,heunghae,36.1125,129.3522,287.18,48,100,5.4,KR,1682305531
96,iqaluit,63.7506,-68.5145,274.0,93,100,1.03,CA,1682305532
97,ciudad guayana,8.3533,-62.6528,297.88,95,93,1.13,VE,1682305533
98,saldanha,-33.0117,17.9442,289.18,96,100,5.41,ZA,1682305533
99,hermanus,-34.4187,19.2345,292.48,94,100,3.52,ZA,1682305534
100,coruripe,-10.1256,-36.1756,298.07,80,59,3.18,BR,1682305535
101,coshocton,40.272,-81.8596,279.34,72,93,2.17,US,1682305496
102,west island,-12.1568,96.8225,301.14,83,40,6.17,CC,1682305537
103,albany,42.6001,-73.9662,279.94,84,100,4.92,US,1682305249
104,beyneu,45.3167,55.2,290.21,43,47,6.61,KZ,1682305538
105,oranjemund,-28.55,16.4333,288.58,72,100,3.0,NA,1682305539
106,utrik,11.2278,169.8474,300.21,82,32,9.3,MH,1682305539
107,santa ana,33.7456,-117.8678,293.35,83,40,4.63,US,1682305540
108,lorengau,-2.0226,147.2712,302.93,71,99,4.09,PG,1682305295
109,queenstown,-31.8976,26.8753,289.45,48,100,2.59,ZA,1682305385
110,la'ie,21.6477,-157.9253,300.13,69,99,1.18,US,1682305541
111,tadine,-21.55,167.8833,299.53,75,48,4.73,NC,1682305541
112,sibay,52.7181,58.6658,282.23,59,11,2.69,RU,1682305334
113,el fasher,13.6279,25.3494,298.71,44,60,3.43,SD,1682305542
114,klyuchi,52.2667,79.1667,285.83,41,28,8.82,RU,1682305542
115,labrador city,52.9463,-66.9114,273.1,80,0,2.06,CA,1682305543
116,kearney,40.6995,-99.0815,279.96,40,0,3.6,US,1682305543
117,saipan,15.1355,145.701,304.54,100,40,7.72,MP,1682305544
118,khandyga,62.6667,135.6,274.13,74,100,4.28,RU,1682305544
119,haiku-pauwela,20.9219,-156.3051,300.16,47,20,3.09,US,1682305544
120,happy valley-goose bay,53.3168,-60.3315,276.32,81,20,2.06,CA,1682305545
121,prineville,44.2999,-120.8345,284.54,58,0,7.2,US,1682305545
122,cascais,38.6979,-9.4215,288.99,88,7,7.6,PT,1682305546
123,xiva,41.3783,60.3639,292.14,24,35,9.97,UZ,1682305546
124,nagato,34.3833,131.2,288.64,47,100,5.02,JP,1682305547
125,as sulayyil,20.4607,45.5779,293.29,47,1,3.42,SA,1682305547
126,bubaque,11.2833,-15.8333,299.31,64,11,5.23,GW,1682305548
127,mutuali,-14.8706,37.0044,290.88,96,14,1.11,MZ,1682305548
128,atchison,39.563,-95.1216,281.1,52,54,3.55,US,1682305548
129,mamfe,5.754,9.3123,296.32,97,97,0.59,CM,1682305549
130,kodiak,57.79,-152.4072,273.58,60,92,7.41,US,1682305350
131,constitucion,-35.3333,-72.4167,285.11,86,8,2.62,CL,1682305550
132,ancud,-41.8697,-73.8203,280.89,88,1,1.68,CL,1682305550
133,corner brook,48.9667,-57.9484,275.24,96,100,2.5,CA,1682305551
134,lebu,-37.6167,-73.65,284.32,86,6,4.19,CL,1682305551
135,hakha,22.65,93.6167,296.56,35,9,0.32,MM,1682305551
136,umm ruwaba,12.9061,31.2158,302.72,40,52,6.04,SD,1682305552
137,vorgashor,67.5833,63.95,262.63,95,96,3.91,RU,1682305552
138,greenfield,42.9614,-88.0126,276.96,66,75,0.0,US,1682305553
139,howrah,22.5892,88.3103,302.15,74,20,0.0,IN,1682305355
140,kavieng,-2.5744,150.7967,302.2,73,44,3.22,PG,1682305554
141,nar'yan-mar,67.6713,53.087,266.38,91,23,7.03,RU,1682305554
142,belyy yar,53.6039,91.3903,279.09,36,0,2.0,RU,1682305555
143,guerrero negro,27.9769,-114.0611,288.23,83,0,6.02,MX,1682305555
144,sitka,57.0531,-135.33,280.09,81,100,3.6,US,1682305471
145,berezovyy,51.6667,135.7,279.01,51,100,5.71,RU,1682305556
146,onguday,50.75,86.15,281.85,36,82,2.03,RU,1682305556
147,pisco,-13.7,-76.2167,295.18,83,0,3.09,PE,1682305557
148,mantyharju,61.4167,26.8833,281.21,76,99,4.41,FI,1682305557
149,ilulissat,69.2167,-51.1,273.16,100,100,3.09,GL,1682305558
150,zimmerman,45.4433,-93.59,277.14,64,100,0.0,US,1682305558
151,araguaina,-7.1911,-48.2072,296.76,79,100,1.16,BR,1682305506
152,badagry,6.4167,2.8833,299.85,87,100,1.27,NG,1682305559
153,aykhal,66.0,111.5,269.82,80,83,1.65,RU,1682305559
154,machico,32.7,-16.7667,291.5,83,40,2.57,PT,1682305560
155,tsiombe,-25.3,45.4833,293.27,88,7,4.14,MG,1682305560
156,port alfred,-33.5906,26.891,294.6,61,100,2.0,ZA,1682305561
157,puerto baquerizo moreno,-0.9,-89.6,298.95,81,37,3.99,EC,1682305561
158,novoishimskiy,53.1981,66.7694,282.62,68,6,5.46,KZ,1682305562
159,beasain,43.0502,-2.2009,285.07,96,78,1.29,ES,1682305563
160,val-d'or,48.1002,-77.7828,276.2,81,40,3.09,CA,1682305564
161,naze,28.3667,129.4833,296.66,78,29,6.3,JP,1682305564
162,stanley,54.868,-1.6985,277.48,90,75,6.69,GB,1682305565
163,bull savanna,17.8868,-77.5902,296.31,78,27,2.1,JM,1682305565
164,edinburgh of the seven seas,-37.0676,-12.3116,288.23,60,85,11.08,SH,1682305566
165,lerwick,60.1545,-1.1494,277.15,64,96,12.5,GB,1682305567
166,ankang,32.68,109.0172,280.01,92,100,0.73,CN,1682305567
167,st. john's,47.5649,-52.7093,276.08,96,100,9.83,CA,1682305568
168,palmas,-10.2128,-48.3603,297.08,94,75,1.54,BR,1682305568
169,sarikamis,40.3381,42.5731,277.97,93,94,1.83,TR,1682305569
170,guangyuan,32.442,105.823,283.86,70,100,2.39,CN,1682305569
171,beau vallon,-20.4189,57.6953,298.83,88,40,1.54,MU,1682305570
172,trebinje,42.7119,18.3442,287.35,58,0,4.63,BA,1682305572
173,dabola,10.75,-11.1167,300.02,27,87,1.92,GN,1682305572
174,tchaourou,8.8865,2.5975,296.65,87,100,1.67,BJ,1682305573
175,bocanda,7.0626,-4.4995,297.25,96,100,2.04,CI,1682305574
176,hakui,36.8833,136.7833,287.73,32,100,4.12,JP,1682305574
177,altai,46.3722,96.2583,271.7,48,2,2.67,MN,1682305575
178,wanning,18.8003,110.3967,302.26,74,68,4.84,CN,1682305576
179,mata-utu,-13.2816,-176.1745,301.1,74,4,3.0,WF,1682305576
180,greymouth,-42.4667,171.2,286.61,59,4,3.99,NZ,1682305577
181,murun-kuren,49.6342,100.1625,276.71,33,34,1.84,MN,1682305578
182,shijiazhuang,38.0414,114.4786,283.07,81,100,1.15,CN,1682305578
183,west bay,19.3667,-81.4167,300.19,77,20,2.06,KY,1682305579
184,villa gesell,-37.2639,-56.973,289.29,92,24,4.06,AR,1682305537
185,barhi,23.9,80.8,302.11,31,65,5.53,IN,1682305580
186,rongelap,11.1635,166.8941,300.19,82,49,10.33,MH,1682305580
187,qarazhal,48.0078,70.7903,286.11,54,20,4.4,KZ,1682305581
188,belem de sao francisco,-8.7539,-38.9658,296.11,74,95,6.56,BR,1682305582
189,crane,31.3974,-102.3501,281.4,81,100,6.54,US,1682305582
190,rudnichnyy,59.617,52.4703,277.67,81,100,0.99,RU,1682305583
191,kaa-khem,51.6833,94.7333,280.16,38,42,2.95,RU,1682305584
192,daura,11.5538,11.4085,300.71,55,100,6.96,NG,1682305585
193,sedro-woolley,48.5039,-122.2361,283.32,84,100,3.6,US,1682305586
194,kirakira,-10.4544,161.9205,302.42,74,27,3.16,SB,1682305586
195,whitehorse,60.7161,-135.0538,278.72,78,75,2.24,CA,1682305296
196,nchelenge,-9.3451,28.734,293.0,89,96,2.9,ZM,1682305587
197,atafu village,-8.5421,-172.5159,302.06,71,45,1.28,TK,1682305588
198,dryden,49.7833,-92.7503,272.31,47,75,1.54,CA,1682305589
199,ambasa,23.9172,91.8472,302.99,46,0,0.92,IN,1682305589
200,florence,43.7667,11.25,288.01,80,40,2.06,IT,1682305590
201,ta`u,-14.2336,-169.5144,300.3,75,23,2.65,AS,1682305590
202,bunia,1.5667,30.25,290.26,97,100,0.36,CD,1682305591
203,partapur,23.6,74.1667,302.25,23,5,2.48,IN,1682305592
204,tolanaro,-25.0319,46.9987,296.19,83,20,3.09,MG,1682305592
205,urangan,-25.3,152.9,298.82,61,30,10.23,AU,1682305593
206,zhelezinka,53.54,75.3072,285.29,49,58,4.97,KZ,1682305594
207,minas de marcona,-15.2119,-75.1103,291.0,79,0,3.73,PE,1682305594
208,illapel,-31.6308,-71.1653,289.45,81,30,0.98,CL,1682305342
209,woolgoolga,-30.1106,153.2007,295.08,57,49,6.75,AU,1682305595
210,zouerate,22.7187,-12.4521,293.89,47,0,4.93,MR,1682305596
211,kingston,17.997,-76.7936,294.93,89,0,1.51,JM,1682305494
212,kourou,5.1552,-52.6478,297.18,90,100,0.78,GF,1682305597
213,chenaran,36.6455,59.1212,291.95,26,19,1.55,IR,1682305598
214,sangamner,19.5667,74.2167,301.42,25,91,3.24,IN,1682305598
215,guane,22.2025,-84.0875,296.74,67,37,1.32,CU,1682305599
216,praia da vitoria,38.7333,-27.0667,291.29,94,75,10.04,PT,1682305599
217,mwaro,-3.5,29.6667,287.36,95,99,1.08,BI,1682305600
218,guiberoua,6.2392,-6.1727,296.61,98,100,1.21,CI,1682305600
219,colchani,-20.3,-66.9333,278.5,28,4,2.8,BO,1682305601
220,kapuskasing,49.4169,-82.4331,272.07,97,100,1.83,CA,1682305601
221,invercargill,-46.4,168.35,284.83,82,86,0.89,NZ,1682305601
222,dhidhdhoo,6.8833,73.1,302.36,68,96,4.86,MV,1682305602
223,turek,52.0155,18.5005,284.05,87,100,3.22,PL,1682305602
224,ahvaz,31.3203,48.6693,301.06,21,5,0.6,IR,1682305603
225,rio negrinho,-26.2544,-49.5183,287.02,98,77,1.19,BR,1682305603
226,princeville,45.7668,-61.2985,276.68,92,1,0.77,CA,1682305604
227,hailar,49.2,119.7,282.21,18,100,8.37,CN,1682305604
228,kulhudhuffushi,6.6221,73.07,302.39,68,100,5.09,MV,1682305605
229,shangzhi,45.2167,127.9667,285.5,13,40,6.31,CN,1682305605
230,hadibu,12.65,54.0333,300.61,74,100,1.74,YE,1682305339
231,horki,54.2861,30.9842,283.86,68,90,2.67,BY,1682305606
232,smithers,54.7804,-127.1743,280.33,93,100,1.54,CA,1682305607
233,heves,47.6,20.2833,279.75,79,95,2.47,HU,1682305419
234,al burayqah,30.4062,19.5739,292.14,72,12,4.94,LY,1682305608
235,chibougamau,49.9168,-74.3659,275.94,100,100,2.57,CA,1682305361
236,san patricio,28.017,-97.5169,291.39,89,100,6.26,US,1682305609
237,turuntayevo,52.2,107.6167,279.2,29,0,1.64,RU,1682305609
238,zgurovka,50.5028,31.7849,282.1,73,40,1.51,UA,1682305610
239,sisimiut,66.9395,-53.6735,273.02,99,100,1.57,GL,1682305610
240,pabrade,55.0,25.7833,283.85,76,6,2.94,LT,1682305611
241,gilgit,35.9221,74.3087,285.78,32,0,2.32,PK,1682305611
242,tineo,43.3376,-6.4145,281.29,95,98,1.72,ES,1682305611
243,nanakuli,21.3906,-158.1547,300.12,65,100,4.12,US,1682305612
244,flekkefjord,58.2971,6.6607,281.45,92,100,1.78,NO,1682305612
245,igarka,67.4667,86.5833,273.68,99,100,5.93,RU,1682305613
246,christchurch,-43.5333,172.6333,287.82,46,40,8.75,NZ,1682305496
247,san agustin de valle fertil,-30.6335,-67.4682,286.49,85,72,0.57,AR,1682305614
248,daru,-9.0763,143.2092,300.84,84,100,1.3,PG,1682305614
249,mount darwin,-16.7725,31.5838,289.26,67,100,1.17,ZW,1682305615
250,enewetak,11.3474,162.3373,300.08,83,99,8.66,MH,1682305616
251,kolpashevo,58.3131,82.9089,279.02,87,100,5.58,RU,1682305616
252,badr hunayn,23.7829,38.7905,301.77,63,100,2.56,SA,1682305616
253,san antonio de pale,-1.4014,5.6325,300.65,78,95,3.86,GQ,1682305617
254,punta arenas,-53.15,-70.9167,279.21,81,100,3.6,CL,1682305617
255,pucallpa,-8.3791,-74.5539,299.17,89,40,1.54,PE,1682305589
256,new norfolk,-42.7826,147.0587,292.99,43,2,0.45,AU,1682305618
257,hami,42.8,93.45,287.72,25,89,3.13,CN,1682305618
258,island harbour,50.724,-1.2758,280.89,91,7,1.34,GB,1682305619
259,rahimah,26.7079,50.0619,297.27,52,99,3.66,SA,1682305619
260,moundou,8.5667,16.0833,300.88,53,100,2.21,TD,1682305620
261,franklin,39.9667,-83.0166,279.5,64,100,3.6,US,1682305620
262,grande prairie,55.1667,-118.8027,281.25,66,75,6.69,CA,1682305493
263,farafangana,-22.8167,47.8333,295.28,93,28,2.45,MG,1682305621
264,zhezqazghan,47.7833,67.7667,285.47,58,0,2.0,KZ,1682305621
265,monte alegre,-2.0078,-54.0692,296.39,96,100,0.83,BR,1682305623
266,tidjikja,18.5564,-11.4271,299.33,19,0,4.39,MR,1682305356
267,colac,-38.3333,143.5833,294.36,47,0,2.99,AU,1682305624
268,lianghu,29.9915,120.8985,286.59,94,100,3.7,CN,1682305625
269,kish,26.5578,54.0194,298.54,66,0,5.37,IR,1682305626
270,videira,-27.0083,-51.1517,285.03,99,22,1.34,BR,1682305357
271,san luis,-33.295,-66.3356,288.02,81,100,3.5,AR,1682305627
272,kargasok,59.0556,80.8572,278.29,91,100,5.83,RU,1682305627
273,burang,30.25,81.1667,271.13,61,100,1.75,CN,1682305628
274,trinidad,-14.8333,-64.9,294.3,83,90,1.62,BO,1682305561
275,gadzhiyevo,69.2551,33.3362,266.13,90,24,4.85,RU,1682305629
276,taulaga,-11.0553,-171.0883,301.79,72,20,3.12,AS,1682305629
277,mkushi,-13.6202,29.3939,288.26,87,99,1.64,ZM,1682305630
278,santiago de cao,-7.9589,-79.2392,297.22,78,75,3.09,PE,1682305631
279,villamontes,-21.25,-63.5,292.79,88,100,0.95,BO,1682305631
280,kattivakkam,13.2167,80.3167,302.63,85,36,5.51,IN,1682305632
281,dukhan,25.4297,50.7858,298.96,59,43,3.59,QA,1682305632
282,saint-laurent-du-maroni,5.5039,-54.0289,295.32,98,100,0.21,GF,1682305633
283,xiaoweizhai,26.1903,107.5125,280.87,94,100,2.27,CN,1682305520
284,kavaratti,10.5669,72.642,301.75,72,96,5.18,IN,1682305634
285,aitape,-3.1374,142.3475,302.03,76,92,2.55,PG,1682305635
286,nuku'alofa,-21.1333,-175.2,301.34,74,75,4.63,TO,1682305636
287,san fernando de monte cristi,19.8667,-71.65,298.0,67,9,1.26,DO,1682305636
288,uturoa,-16.7333,-151.4333,300.71,77,54,3.11,PF,1682305637
289,kudahuvadhoo,2.6708,72.8944,302.45,68,100,2.94,MV,1682305637
290,porto novo,6.4965,2.6036,299.16,89,100,0.76,BJ,1682305638
291,ad dabbah,18.05,30.95,301.43,14,90,3.19,SD,1682305639
292,son la,21.3167,103.9,304.61,41,68,1.04,VN,1682305640
293,sao gabriel da cachoeira,-0.1303,-67.0892,296.15,97,29,1.04,BR,1682305640
294,juan griego,11.0817,-63.9655,299.22,89,88,2.06,VE,1682305641
295,mejit,10.2753,170.8646,300.43,81,65,8.17,MH,1682305642
296,san jose,37.3394,-121.895,289.75,72,20,8.49,US,1682305064
297,arteche,12.2645,125.4048,300.69,85,41,2.7,PH,1682305643
298,antsiranana,-12.2787,49.2917,296.6,93,28,2.57,MG,1682305644
299,ola,59.5833,151.2833,275.49,72,100,6.45,RU,1682305644
300,golfito,8.639,-83.166,297.4,92,9,1.34,CR,1682305500
301,sol'-iletsk,51.1631,54.9918,283.54,61,3,0.9,RU,1682305646
302,safotu,-13.4513,-172.4018,300.44,80,75,1.72,WS,1682305646
303,constantia,44.1833,28.65,278.54,78,3,2.28,RO,1682305647
304,port macquarie,-31.4333,152.9167,291.98,69,77,5.19,AU,1682305455
305,jeronimo monteiro,-20.7894,-41.395,291.91,92,74,0.69,BR,1682305649
306,mount isa,-20.7333,139.5,303.02,32,28,5.66,AU,1682305649
307,balabac,7.9868,117.0645,303.34,69,100,4.82,PH,1682305650
308,yaren,-0.5472,166.916,301.88,76,74,4.69,NR,1682305650
309,quincy,42.2529,-71.0023,285.18,93,100,2.57,US,1682305595
310,bokoro,12.3807,17.0568,304.94,22,99,4.81,TD,1682305652
311,kapa'a,22.0752,-159.319,299.33,85,100,4.63,US,1682305653
312,boyolangu,-8.1181,111.8935,302.43,73,60,1.6,ID,1682305653
313,mogocha,53.7333,119.7667,273.93,55,100,3.41,RU,1682305654
314,andovoranto,-18.95,49.1,296.39,93,16,2.38,MG,1682305655
315,jambi city,-1.6,103.6167,301.99,81,81,0.94,ID,1682305372
316,kolwezi,-10.7148,25.4667,288.01,94,99,1.87,CD,1682305656
317,kuanda,56.3161,116.0806,271.91,48,100,4.38,RU,1682305656
318,college,64.8569,-147.8028,265.7,66,100,8.23,US,1682305419
319,yuanlin,30.4151,112.8859,281.7,90,100,5.57,CN,1682305658
320,lihue,21.9789,-159.3672,298.92,84,100,4.63,US,1682305658
321,osinniki,53.6239,87.3598,278.76,62,100,1.57,RU,1682305659
322,pandan,14.0453,124.1694,301.79,68,25,5.05,PH,1682305659
323,port arthur,38.8,121.2667,289.27,40,98,2.51,CN,1682305660
324,leirvik,59.7798,5.5005,281.28,87,100,1.06,NO,1682305660
325,pampas,-12.4,-74.9,282.67,92,100,0.7,PE,1682305660
326,ypsonas,34.6884,32.9574,288.69,72,0,4.63,CY,1682305661
327,sur,22.5667,59.5289,302.34,56,100,2.85,OM,1682305492
328,bria,6.5423,21.9863,295.19,92,99,1.18,CF,1682305662
329,las tablas,7.7667,-80.2833,298.25,99,88,0.36,PA,1682305662
330,buzdyak,54.5833,54.55,283.43,57,9,2.93,RU,1682305663
331,pratt,37.6439,-98.7376,285.27,24,0,4.12,US,1682305424
332,aoulef,26.9667,1.0833,298.36,17,5,7.43,DZ,1682305663
333,maues,-3.3836,-57.7186,295.89,95,100,1.19,BR,1682305662
334,weno,7.4515,151.8468,305.12,74,40,1.54,FM,1682305664
335,keflavik,64.0049,-22.5624,276.39,70,40,0.51,IS,1682305665
336,remire-montjoly,4.9167,-52.2667,297.17,100,100,0.0,GF,1682305665
337,khairpur tamewah,29.5811,72.2364,301.79,15,0,2.8,PK,1682305666
338,kununurra,-15.7667,128.7333,304.14,40,2,4.63,AU,1682305666
339,puerto aysen,-45.4,-72.7,281.65,97,15,1.09,CL,1682305667
340,ulaangom,49.9811,92.0667,278.35,29,100,1.67,MN,1682305667
341,cozumel,20.5083,-86.9458,297.56,83,59,4.39,MX,1682305399
342,coquimbo,-29.9533,-71.3436,287.0,94,75,1.54,CL,1682305668
343,huancavelica,-12.7667,-74.9833,277.16,87,100,0.63,PE,1682305668
344,mersa matruh,31.3525,27.2453,290.02,85,0,4.66,EG,1682305669
345,albertina,-22.2008,-46.6158,287.95,75,37,1.97,BR,1682305669
346,paradip garh,20.3167,86.6167,302.62,67,18,3.07,IN,1682305670
347,siwa oasis,29.2041,25.5195,293.14,42,0,5.69,EG,1682305670
348,brookings,44.3114,-96.7984,276.15,54,0,0.0,US,1682305401
349,tanjung sepat,2.6579,101.5629,305.84,66,20,1.03,MY,1682305671
350,tazacorte,28.629,-17.9293,290.69,86,20,5.14,ES,1682305671
351,kem',64.9555,34.5793,270.81,97,100,3.32,RU,1682305672
352,ashland,40.8167,-82.2665,277.65,65,99,2.8,US,1682305672
353,alo,7.4178,6.7371,298.69,89,100,0.21,NG,1682305673
354,trapani,37.8333,12.6667,287.19,76,5,3.97,IT,1682305673
355,kyshtovka,56.555,76.6271,282.28,71,100,3.29,RU,1682305674
356,elliot lake,46.3834,-82.6331,273.67,98,100,2.85,CA,1682305583
357,malabar,-33.9667,151.25,296.58,74,75,6.17,AU,1682305674
358,tazovsky,67.4667,78.7,273.26,98,100,7.75,RU,1682305675
359,huarmey,-10.0681,-78.1522,297.68,82,11,2.98,PE,1682305675
360,kilindoni,-7.9139,39.6668,299.6,81,43,3.44,TZ,1682305676
361,glace bay,46.1969,-59.957,276.8,90,0,1.34,CA,1682305676
362,ilek,51.5271,53.3831,283.75,63,0,0.33,RU,1682305677
363,klerksdorp,-26.8521,26.6667,286.73,30,34,1.52,ZA,1682305677
364,sao geraldo do araguaia,-6.4006,-48.555,296.24,88,100,0.41,BR,1682305678
365,vadso,70.0744,29.7487,269.64,80,20,5.14,NO,1682305678
366,biswan,27.5,81.0,302.99,16,93,4.37,IN,1682305634
367,santa rosalia,27.3167,-112.2833,295.61,39,0,2.96,MX,1682305679
368,laguna,38.421,-121.4238,295.14,60,0,4.63,US,1682305679
369,chernomorskoye,45.5039,32.6997,283.22,80,97,2.28,UA,1682305680
370,poronaysk,49.2167,143.1167,279.94,44,94,5.94,RU,1682305680
371,hobyo,5.3505,48.5268,301.68,75,97,2.04,SO,1682305681
372,georgetown,5.4112,100.3354,305.11,79,20,1.54,MY,1682305436
373,dunedin,-45.8742,170.5036,284.71,10,11,9.38,NZ,1682305543
374,solnechnyy,50.7214,136.6319,277.7,62,100,5.18,RU,1682305682
375,dombarovskiy,50.7587,59.5386,282.11,72,0,3.05,RU,1682305683
376,turpan,42.9333,89.1667,292.29,16,0,1.29,CN,1682305684
377,mattersburg,47.7333,16.4,284.85,85,71,2.52,AT,1682305685
378,nemuro,43.3236,145.575,277.25,73,98,2.03,JP,1682305685
379,egilsstadir,65.2653,-14.3948,267.1,79,0,2.57,IS,1682305520
380,alzamay,55.5562,98.6644,281.3,46,71,3.5,RU,1682305687
381,matoury,4.8483,-52.3317,297.13,100,100,0.0,GF,1682305687
382,salida,37.7058,-121.0849,294.18,59,0,6.17,US,1682305688
383,avrille,47.5,-0.5833,280.21,97,0,4.23,FR,1682305689
384,fort bragg,35.139,-79.006,290.26,60,75,1.54,US,1682305689
385,kisoro,-1.2854,29.685,288.02,99,100,0.14,UG,1682305690
386,bikenibeu village,1.3673,173.1241,303.13,74,40,5.14,KI,1682305691
387,chimbote,-9.0853,-78.5783,297.74,80,44,1.94,PE,1682305539
388,port shepstone,-30.7414,30.455,291.48,69,48,3.22,ZA,1682305692
389,holualoa,19.6228,-155.9522,298.06,79,75,4.63,US,1682305693
390,natchez,31.5604,-91.4032,285.51,82,100,2.57,US,1682305693
391,micheweni,-4.9667,39.8333,298.87,86,100,2.96,TZ,1682305694
392,iquique,-20.2208,-70.1431,293.17,79,7,2.38,CL,1682305663
393,caxias,38.7031,-9.2767,288.97,89,20,2.57,PT,1682305695
394,tindouf,27.6711,-8.1474,296.32,23,1,2.95,DZ,1682305696
395,usogorsk,63.4106,48.6872,271.21,82,100,1.77,RU,1682305696
396,nahrin,36.0649,69.1334,293.88,18,52,1.14,AF,1682305697
397,kuusamo,65.9667,29.1833,270.17,54,0,2.06,FI,1682305697
398,kostanay,53.1667,63.5833,282.31,57,0,7.0,KZ,1682305698
399,bonthe,7.5264,-12.505,300.27,86,8,1.69,SL,1682305699
400,mana,5.6592,-53.7767,296.74,91,100,0.33,GF,1682305699
401,rio grande city,26.3798,-98.8203,291.54,84,100,7.81,US,1682305700
402,tetyushi,54.9382,48.8366,282.26,58,8,2.03,RU,1682305701
403,papao,-17.75,-149.55,299.97,88,100,4.3,PF,1682305701
404,saint-joseph,-21.3667,55.6167,296.36,74,19,1.21,RE,1682305702
405,khilok,51.3674,110.4676,276.16,27,98,3.0,RU,1682305702
406,kamina,-8.7386,24.9906,290.66,96,98,0.78,CD,1682305703
407,kshenskiy,51.8408,37.7136,283.42,75,100,2.14,RU,1682305704
408,margate,51.3813,1.3862,281.41,82,85,3.13,GB,1682305704
409,kupang,-10.1667,123.5833,303.47,74,75,7.72,ID,1682305705
410,nephi,39.7102,-111.8363,284.6,62,96,1.15,US,1682305706
411,port hedland,-20.3167,118.5667,305.18,31,0,6.17,AU,1682305622
412,rio grande,-32.035,-52.0986,293.17,88,100,5.39,BR,1682305707
413,valdivia,-39.8142,-73.2459,283.2,89,49,0.28,CL,1682305679
414,ajaccio,42.0,8.9167,285.18,88,75,1.54,FR,1682305708
415,cockburn town,21.4612,-71.1419,298.49,72,1,3.75,TC,1682305489
416,santa elena de uairen,4.6167,-61.1333,292.43,90,100,0.3,VE,1682305709
417,ust'-uda,54.1742,103.0304,278.74,37,0,2.29,RU,1682305710
418,polyarnyy,69.1989,33.4478,266.88,89,17,4.36,RU,1682305710
419,uribia,11.7139,-72.266,298.81,75,4,3.53,CO,1682305711
420,hithadhoo,-0.6,73.0833,301.94,72,100,2.42,MV,1682305712
421,yusufeli,40.8204,41.5443,286.53,90,92,1.52,TR,1682305712
422,ciudad lazaro cardenas,17.9583,-102.2,297.65,78,52,1.56,MX,1682305713
423,rouissat,31.9243,5.3502,294.78,24,62,3.32,DZ,1682305713
424,arkalyk,50.2486,66.9114,282.41,66,98,5.63,KZ,1682305714
425,sao jose da coroa grande,-8.8978,-35.1478,298.11,84,89,3.31,BR,1682305714
426,goshogawara,40.8044,140.4414,285.1,48,40,9.33,JP,1682305715
427,chazuta,-6.5742,-76.1367,296.28,92,36,0.52,PE,1682305716
428,itaueira,-7.6033,-43.0256,295.09,74,45,2.05,BR,1682305717
429,ceres,37.5949,-120.9577,294.12,52,0,6.17,US,1682305717
430,boyalik,41.2634,28.6314,281.91,89,0,0.95,TR,1682305718
431,touros,-5.1989,-35.4608,298.22,85,96,4.17,BR,1682305718
432,noumea,-22.2763,166.4572,301.14,77,46,4.09,NC,1682305718
433,moriki,12.8741,6.4875,301.26,50,100,5.08,NG,1682305719
434,plesetsk,62.708,40.2916,274.11,94,100,2.5,RU,1682305719
435,bonito,-21.1211,-56.4819,292.29,93,1,1.55,BR,1682305720
436,mbamba bay,-11.2833,34.7667,297.02,78,62,0.88,TZ,1682305720
437,rye,40.9807,-73.6837,287.0,80,100,5.14,US,1682305721
438,guasdualito,7.2424,-70.7324,301.15,74,95,1.03,VE,1682305721
439,pacific grove,36.6177,-121.9166,287.73,88,100,3.6,US,1682305619
440,nantucket,41.2835,-70.0995,284.23,97,100,3.6,US,1682305488
441,nuuk,64.1835,-51.7216,274.49,93,20,3.58,GL,1682305722
442,yicheng,31.3705,119.8703,284.58,85,100,6.78,CN,1682305723
443,port moresby,-9.4431,147.1797,302.28,71,96,2.57,PG,1682305723
444,hamilton,39.1834,-84.5333,279.31,69,100,1.54,US,1682305724
445,parintins,-2.6283,-56.7358,296.44,93,100,1.09,BR,1682305724
446,mbanza kongo,-6.267,14.2401,293.24,97,62,0.7,AO,1682305465
447,ulsan,35.5372,129.3167,286.8,51,100,5.32,KR,1682305150
448,essaouira,31.5125,-9.77,291.27,65,5,9.14,MA,1682305725
449,la ronge,55.1001,-105.2842,274.48,71,97,3.98,CA,1682305690
450,boda,4.3189,17.4695,294.46,89,96,1.0,CF,1682305726
451,mugia,43.1041,-9.2179,289.35,98,100,5.44,ES,1682305726
452,hassi messaoud,31.6804,6.0729,294.1,26,96,3.51,DZ,1682305727
453,pasuruan,-7.6453,112.9075,305.31,70,18,2.29,ID,1682305727
454,istaravshan,39.9142,69.0033,293.24,22,48,0.27,TJ,1682305728
455,newman,37.3138,-121.0208,295.28,68,3,2.95,US,1682305728
456,okap,19.7578,-72.2042,298.28,70,29,1.95,HT,1682305728
457,fonte boa,-2.4959,-66.2662,296.62,98,96,1.18,BR,1682305729
458,dimbokro,6.6451,-4.7048,297.61,97,99,1.78,CI,1682305729
459,novyy urgal,51.0736,132.5642,277.49,39,100,6.43,RU,1682305730
460,la passe,45.5549,-0.8967,283.7,83,55,4.27,FR,1682305730
461,karlskrona,56.1616,15.5866,274.4,91,85,1.26,SE,1682305730
462,san blas,21.5167,-105.2667,294.3,75,25,0.89,MX,1682305731
463,kolyshley,52.7005,44.5367,283.65,56,83,2.0,RU,1682305731
464,sinabang,2.4803,96.3801,301.69,78,100,1.88,ID,1682305732
465,fuglafjordur,62.244,-6.814,275.41,64,100,10.04,FO,1682305732
466,montevideo,-34.8335,-56.1674,291.21,100,75,0.45,UY,1682305592
467,manismata,-2.4667,111.0333,302.66,80,81,0.92,ID,1682305734
468,vilyeyka,54.4896,26.9062,282.13,78,36,3.12,BY,1682305734
469,amfissa,38.525,22.3731,285.77,80,8,1.33,GR,1682305734
470,machagai,-26.9261,-60.0496,292.01,57,59,2.11,AR,1682305735
471,vila velha,-20.3297,-40.2925,296.45,82,40,1.54,BR,1682305499
472,frenda,35.0654,1.0495,287.89,54,100,1.68,DZ,1682305736
473,serpong,-6.3169,106.6642,304.97,64,82,6.71,ID,1682305736
474,inhambane,-23.865,35.3833,294.5,81,19,3.74,MZ,1682305736
475,pedernales,18.0384,-71.744,298.46,71,8,0.3,DO,1682305737
476,mossel bay,-34.1831,22.146,291.74,83,100,1.56,ZA,1682305737
477,suncho corral,-27.9336,-63.4294,287.92,98,100,4.37,AR,1682305738
478,bonawon,9.134,122.9193,305.04,60,96,1.55,PH,1682305738
479,pathein,16.7833,94.7333,307.55,47,0,0.99,MM,1682305739
480,taro,-8.3862,115.28,299.18,58,17,1.2,ID,1682305739
481,jayapura,-2.5333,140.7,305.81,66,100,2.4,ID,1682305739
482,barra do garcas,-15.89,-52.2567,296.34,80,94,1.38,BR,1682305740
483,sao felix do xingu,-6.6447,-51.995,294.86,94,100,0.47,BR,1682305740
484,gannan,47.9147,123.5031,286.13,10,26,3.35,CN,1682305741
485,chu,43.5983,73.7614,291.3,39,89,3.09,KZ,1682305741
486,dahab,28.501,34.5134,296.69,44,1,6.27,EG,1682305742
487,cabedelo,-6.9811,-34.8339,298.52,83,98,4.35,BR,1682305678
488,shinkafi,13.0753,6.5105,301.78,49,100,5.26,NG,1682305745
489,karak city,31.1637,35.762,286.74,40,36,2.14,JO,1682305745
490,kaoma,-14.7833,24.8,291.38,73,99,2.48,ZM,1682305746
491,rolla,37.9514,-91.7713,279.39,57,0,2.06,US,1682305747
492,la plata,-34.9215,-57.9545,290.27,81,100,3.19,AR,1682305740
493,oituz,46.2,26.6167,278.42,85,12,2.04,RO,1682305748
494,tura,25.5198,90.2201,301.66,40,6,0.21,IN,1682305749
495,san julian,21.0167,-102.1667,292.89,14,81,3.69,MX,1682305750
496,olyokminsk,60.3736,120.4264,276.19,50,93,2.54,RU,1682305750
497,labytnangi,66.6572,66.4183,264.53,83,50,5.94,RU,1682305751
498,meung-sur-loire,47.8312,1.6958,281.94,89,0,4.63,FR,1682305752
499,brigantine,39.4101,-74.3646,287.04,59,40,2.57,US,1682305752
500,juegang,32.3174,121.1855,285.32,77,100,7.38,CN,1682305753
501,nouadhibou,20.931,-17.0347,293.14,73,36,8.75,MR,1682305753
502,kruisfontein,-34.0033,24.7314,290.31,80,100,2.14,ZA,1682305754
503,carnarvon,-24.8667,113.6333,295.83,67,100,7.7,AU,1682305755
504,malanje,-9.5402,16.341,290.78,96,100,0.96,AO,1682305756
505,sendafa,9.15,39.0333,285.26,70,98,1.4,ET,1682305757
506,ulanhot,46.0833,122.0833,287.32,10,63,4.14,CN,1682305757
507,krasnyy chikoy,50.3643,108.7512,277.62,35,100,2.78,RU,1682305758
508,ha giang,22.8333,104.9833,304.75,61,87,2.1,VN,1682305758
509,tecpan de galeana,17.25,-100.6833,297.35,85,82,1.1,MX,1682305759
510,salalah,17.0151,54.0924,301.2,74,0,1.03,OM,1682305759
511,barranca,-10.75,-77.7667,296.7,80,51,2.87,PE,1682305682
512,fecamp,49.7579,0.3746,282.99,92,43,5.21,FR,1682305761
513,benguela,-12.5763,13.4055,298.68,86,98,1.29,AO,1682305761
514,egersund,58.4513,5.9997,280.42,90,100,1.34,NO,1682305761
515,churapcha,62.0025,132.4325,272.57,77,100,6.04,RU,1682305762
516,rengasdengklok,-6.1592,107.2981,304.22,68,32,3.12,ID,1682305763
517,kuqa,41.7278,82.9364,286.3,31,10,2.1,CN,1682305763
518,dul'durga,50.6761,113.5931,275.97,20,100,4.89,RU,1682305764
519,arraial do cabo,-22.9661,-42.0278,295.65,69,0,1.75,BR,1682305764
520,elverum,60.8819,11.5623,272.78,98,99,1.77,NO,1682305765
521,sampit,-2.5333,112.95,302.3,81,43,1.26,ID,1682305765
522,capitao poco,-1.7464,-47.0594,295.84,96,95,1.73,BR,1682305766
523,colonia,50.9333,6.95,283.69,74,20,6.17,DE,1682305766
524,indramayu,-6.3264,108.32,302.65,72,16,3.22,ID,1682305768
525,chimore,-16.9833,-65.1333,293.12,81,37,1.2,BO,1682305768
526,dauphin,51.1494,-100.0502,274.23,75,75,2.57,CA,1682305546
527,shirvan,39.9509,48.8994,287.73,67,65,0.94,AZ,1682305769
528,jolo,6.05,121.0167,303.8,64,100,1.58,PH,1682305770
529,estacion coahuila,32.1939,-115.0017,298.95,24,0,4.91,MX,1682305771
530,pakse,15.1167,105.7833,306.5,51,91,2.08,LA,1682305771
531,leninogorsk,54.6026,52.4609,282.92,58,7,2.0,RU,1682305772
532,polatsk,55.4859,28.7756,284.05,69,100,3.08,BY,1682305772
533,puerto colombia,10.9878,-74.9547,300.2,81,85,5.23,CO,1682305773
534,flying fish cove,-10.4217,105.6791,299.94,82,31,6.77,CX,1682305774
535,ghat,24.9647,10.1728,294.68,29,60,1.62,LY,1682305775
536,alice springs,-23.7,133.8833,298.9,29,16,5.14,AU,1682305749
537,hotan,37.0997,79.9269,292.49,10,0,1.3,CN,1682305776
538,kondopoga,62.2057,34.2614,271.97,94,99,1.64,RU,1682305777
539,ar rutbah,33.0381,40.2848,293.19,40,100,1.37,IQ,1682305778
540,pachino,36.7186,15.0907,287.58,69,10,5.02,IT,1682305682
541,jamui,24.9167,86.2167,302.14,39,0,3.93,IN,1682305778
542,vernon,50.2581,-119.2691,283.49,78,100,1.79,CA,1682305673
543,bouarfa,32.53,-1.95,289.14,59,92,2.66,MA,1682305779
544,acarau,-2.8856,-40.12,298.0,84,83,3.9,BR,1682305780
545,prescott,34.54,-112.4685,291.51,28,0,2.57,US,1682305573
546,guiratinga,-16.3494,-53.7583,294.16,90,96,1.56,BR,1682305781
547,burao,9.5221,45.5336,296.58,69,89,2.84,SO,1682305781
548,kiunga,-6.1219,141.2906,302.78,63,99,1.39,PG,1682305782
549,northam,51.0333,-4.2167,281.27,95,15,2.58,GB,1682305782
550,sumbe,-11.2061,13.8437,298.86,89,98,2.67,AO,1682305783
551,isangel,-19.55,169.2667,301.06,72,14,3.34,VU,1682305783
552,savanna-la-mar,18.219,-78.1332,297.55,78,3,1.89,JM,1682305784
553,rehoboth,-23.3167,17.0833,288.73,76,100,7.02,NA,1682305784
554,meulaboh,4.1363,96.1285,302.25,74,99,1.03,ID,1682305728
555,port saint john's,-31.6229,29.5448,292.91,60,97,2.44,ZA,1682305785
556,skeldon,5.8833,-57.1333,296.15,95,100,0.39,GY,1682305785
557,sandnessjoen,66.0217,12.6316,272.4,61,100,0.89,NO,1682305786
558,saynshand,44.8824,110.1163,286.32,15,100,6.62,MN,1682305787
559,ardestan,33.3761,52.3694,292.79,38,70,1.06,IR,1682305787
560,richards bay,-28.783,32.0377,290.95,87,72,1.93,ZA,1682305788
561,sittwe,20.15,92.9,303.52,59,12,1.12,MM,1682305788
562,bamboo flat,11.7,92.7167,304.0,62,10,3.55,IN,1682305788
563,norilsk,69.3535,88.2027,274.5,87,94,3.45,RU,1682305789
564,tubarjal,30.4999,38.216,292.25,51,100,2.71,SA,1682305790
565,kasongo-lunda,-6.4667,16.8167,293.24,98,82,0.74,CD,1682305790
566,churu,28.3,74.95,299.33,22,0,2.28,IN,1682305790
567,sao joao dos inhamuns,-6.0,-40.2833,294.1,62,100,2.51,BR,1682305791
568,maysville,38.6412,-83.7444,281.03,61,100,0.0,US,1682305791
569,lata,40.1629,-8.3327,287.08,97,18,1.22,PT,1682305792
570,yeppoon,-23.1333,150.7333,300.03,62,65,10.64,AU,1682305792
571,tagkawayan sabang,13.9911,122.5289,303.18,60,59,3.85,PH,1682305792
572,kalmunai,7.4167,81.8167,302.76,70,100,2.89,LK,1682305793
573,anchorage,61.2181,-149.9003,279.18,44,0,6.71,US,1682305637
574,cill airne,52.05,-9.5167,278.98,96,74,1.6,IE,1682305794
575,al ghayzah,16.2079,52.176,300.6,72,11,2.02,YE,1682305795
576,praia,14.9215,-23.5087,295.08,79,5,7.13,CV,1682305795
577,kodinsk,58.6881,99.1844,277.56,71,100,3.93,RU,1682305795
578,tres arroyos,-38.3739,-60.2798,285.41,69,0,2.83,AR,1682305796
579,berbera,10.4396,45.0143,301.07,83,16,2.05,SO,1682305796
580,luderitz,-26.6481,15.1594,290.32,54,100,3.16,NA,1682305797
581,itamaraca,-7.7478,-34.8256,299.18,85,83,3.61,BR,1682305797
582,vanimo,-2.6741,141.3028,302.52,70,100,2.92,PG,1682305798
