City_ID,City,Lat,Lng,Max Temp,Humidity,Cloudiness,Wind Speed,Country,Date
0,papatowai,-46.5619,169.4708,283.21,92,23,2.36,NZ,1682086814
1,punta arenas,-53.15,-70.9167,279.21,70,75,9.26,CL,1682086814
2,furukawa,38.5717,140.9556,280.72,57,100,5.17,JP,1682086815
3,grytviken,-54.2811,-36.5092,275.53,81,12,3.7,GS,1682086815
4,puerto natales,-51.7236,-72.4875,280.4,45,20,4.63,CL,1682086628
5,port-aux-francais,-49.35,70.2167,277.79,66,12,12.1,TF,1682086816
6,kapuskasing,49.4169,-82.4331,273.2,100,100,6.17,CA,1682086817
7,urangan,-25.3,152.9,295.56,74,71,10.61,AU,1682086817
8,yellowknife,62.456,-114.3525,273.44,64,75,3.09,CA,1682086818
9,adamstown,-25.066,-130.1015,297.52,75,100,3.72,PN,1682086818
10,petropavlovsk-kamchatsky,53.0452,158.6483,275.48,65,75,10.0,RU,1682086819
11,booneville,34.6582,-88.5667,291.94,96,100,2.98,US,1682086819
12,horta,38.5333,-28.6333,288.95,85,40,8.94,PT,1682086819
13,malango,-2.9627,119.9001,293.64,99,100,0.48,ID,1682086820
14,shingu,33.7333,135.9833,286.98,85,99,2.48,JP,1682086820
15,arteche,12.2645,125.4048,299.22,85,100,2.33,PH,1682086821
16,iaciara,-14.0958,-46.6317,303.09,47,2,2.26,BR,1682086821
17,anadyr,64.75,177.4833,262.43,92,0,3.0,RU,1682086822
18,whitehorse,60.7161,-135.0538,269.58,92,40,2.57,CA,1682086538
19,serenje,-13.2325,30.2352,295.38,76,80,2.22,ZM,1682086823
20,badger,64.8,-147.5333,274.1,81,40,2.57,US,1682086823
21,maun,-19.9833,23.4167,304.64,20,100,0.86,BW,1682086824
22,cole harbour,44.6724,-63.4751,282.58,64,20,8.75,CA,1682086824
23,jamestown,42.097,-79.2353,295.92,35,0,4.63,US,1682086815
24,mana,5.6592,-53.7767,298.72,90,100,2.98,GF,1682086825
25,winnemucca,40.973,-117.7357,284.18,50,75,6.69,US,1682086825
26,luderitz,-26.6481,15.1594,287.29,81,0,11.22,NA,1682086826
27,nova sintra,14.8667,-24.7167,293.09,78,9,7.88,CV,1682086826
28,hawaiian paradise park,19.5933,-154.9731,295.31,97,75,0.0,US,1682086827
29,tolbazy,54.0241,55.8825,286.51,42,100,3.43,RU,1682086827
30,qaqortoq,60.7167,-46.0333,278.48,65,99,2.09,GL,1682086827
31,arraial do cabo,-22.9661,-42.0278,298.13,65,40,6.17,BR,1682086828
32,margate,51.3813,1.3862,284.09,76,78,1.34,GB,1682086628
33,puerto ayora,-0.7393,-90.3518,302.13,99,57,2.18,EC,1682086829
34,aripuana,-9.1667,-60.6333,302.59,65,47,1.79,BR,1682086829
35,sarupathar,26.1984,93.8094,297.81,69,100,3.61,IN,1682086830
36,port mathurin,-19.6833,63.4167,299.26,76,14,7.82,MU,1682086830
37,port saint john's,-31.6229,29.5448,293.92,50,31,4.64,ZA,1682086830
38,taro,-8.3862,115.28,297.15,96,100,0.6,ID,1682086831
39,klyuchi,52.2667,79.1667,272.49,73,6,2.58,RU,1682086831
40,porto novo,6.4965,2.6036,305.05,56,65,4.98,BJ,1682086832
41,lahad datu,5.0268,118.327,299.08,87,92,1.42,MY,1682086832
42,bad rappenau,49.2406,9.1025,292.95,59,17,4.66,DE,1682086833
43,kapa'a,22.0752,-159.319,294.33,94,100,2.06,US,1682086833
44,margaret river,-33.95,115.0667,288.16,85,78,3.06,AU,1682086620
45,bodo,67.28,14.405,279.79,89,75,11.83,NO,1682086620
46,aasiaat,68.7098,-52.8699,268.32,71,98,2.45,GL,1682086834
47,praia da vitoria,38.7333,-27.0667,291.29,68,40,5.44,PT,1682086835
48,mount pearl,47.5166,-52.7813,275.9,94,100,8.75,CA,1682086835
49,albany,42.6001,-73.9662,289.46,49,50,0.89,US,1682086750
50,odienne,9.51,-7.5692,311.44,25,50,2.63,CI,1682086836
51,edinburgh of the seven seas,-37.0676,-12.3116,291.98,94,100,5.92,SH,1682086837
52,lichtenburg,-26.152,26.1597,298.51,22,11,5.91,ZA,1682086837
53,al bawiti,28.3492,28.8659,300.67,15,72,7.55,EG,1682086838
54,aykhal,66.0,111.5,261.58,100,99,0.85,RU,1682086838
55,pitimbu,-7.4706,-34.8086,303.48,61,100,4.87,BR,1682086838
56,blackmans bay,-43.0167,147.3167,288.22,76,98,2.54,AU,1682086839
57,georgetown,5.4112,100.3354,303.11,74,20,0.0,MY,1682086679
58,dek'emhare,15.07,39.0475,296.04,54,31,5.24,ER,1682086841
59,baikonur,45.6167,63.3167,291.15,14,40,7.07,KZ,1682086841
60,chibougamau,49.9168,-74.3659,272.94,69,40,4.63,CA,1682086841
61,utrik,11.2278,169.8474,299.77,74,66,6.57,MH,1682086842
62,magadan,59.5667,150.8,273.21,81,91,9.36,RU,1682086842
63,howard springs,-12.497,131.047,298.1,93,7,4.41,AU,1682086843
64,saint-philippe,-21.3585,55.7679,300.92,81,48,5.1,RE,1682086843
65,st. john's,47.5649,-52.7093,276.36,95,100,10.28,CA,1682086844
66,nagqu,31.5,92.0,273.6,79,92,1.81,CN,1682086844
67,jalalabad,34.4265,70.4515,296.68,34,0,0.96,AF,1682086844
68,talnakh,69.4865,88.3972,266.6,88,100,3.32,RU,1682086845
69,vilyuchinsk,52.9306,158.4028,276.3,97,100,13.76,RU,1682086845
70,ellsworth,44.5434,-68.4195,280.07,61,20,2.24,US,1682086593
71,oliver,49.1831,-119.5524,278.1,81,93,1.03,CA,1682086846
72,queenstown,-31.8976,26.8753,291.6,23,0,4.23,ZA,1682086847
73,agadez,19.75,10.25,311.44,6,0,4.2,NE,1682086847
74,santa elena de uairen,4.6167,-61.1333,297.25,75,100,1.15,VE,1682086848
75,kudahuvadhoo,2.6708,72.8944,302.27,71,59,2.83,MV,1682086848
76,waitangi,-43.9535,-176.5597,289.16,94,100,2.68,NZ,1682086849
77,khandyga,62.6667,135.6,267.07,96,100,1.13,RU,1682086849
78,zag,46.9441,99.165,271.47,21,0,2.57,MN,1682086849
79,batang,-6.4846,110.7083,299.85,85,98,3.72,ID,1682086850
80,mahina,-17.5065,-149.489,298.02,88,75,2.57,PF,1682086850
81,afaahiti,-17.75,-149.2833,297.08,79,100,8.55,PF,1682086851
82,vorgashor,67.5833,63.95,270.52,90,100,3.0,RU,1682086851
83,angicos,-5.6656,-36.6011,305.65,42,99,3.61,BR,1682086852
84,tralee,52.2704,-9.7026,285.29,66,75,4.63,IE,1682086853
85,saint-francois,46.4154,3.9054,291.3,60,100,2.57,FR,1682086853
86,la ronge,55.1001,-105.2842,273.29,59,75,3.09,CA,1682086853
87,barentu,15.1139,37.5928,308.28,8,0,6.94,ER,1682086854
88,cidreira,-30.1811,-50.2056,293.98,59,21,1.4,BR,1682086855
89,mihai viteazu,46.5333,23.75,289.13,54,99,3.29,RO,1682086855
90,dudinka,69.4058,86.1778,266.83,90,100,6.66,RU,1682086855
91,vydrino,51.485,104.8461,267.31,78,100,2.38,RU,1682086856
92,mata-utu,-13.2816,-176.1745,300.78,77,57,3.01,WF,1682086856
93,lerwick,60.1545,-1.1494,281.15,80,12,2.22,GB,1682086857
94,yuzhno-kurilsk,44.0306,145.8556,277.63,61,8,9.62,RU,1682086857
95,carnarvon,-24.8667,113.6333,296.99,56,26,4.66,AU,1682086857
96,nemuro,43.3236,145.575,277.58,62,2,7.98,JP,1682086858
97,camana,-16.6228,-72.7111,295.6,74,99,4.23,PE,1682086858
98,iqaluit,63.7506,-68.5145,270.0,92,100,3.09,CA,1682086859
99,ulanhot,46.0833,122.0833,276.19,15,57,1.82,CN,1682086859
100,tiksi,71.6872,128.8694,261.73,97,100,4.52,RU,1682086860
101,mccook,40.2019,-100.6257,277.4,50,0,11.32,US,1682086860
102,sandnessjoen,66.0217,12.6316,283.44,81,75,7.72,NO,1682086861
103,port elizabeth,-33.918,25.5701,294.87,64,20,7.2,ZA,1682086861
104,mili,6.0815,171.735,300.66,82,73,5.01,MH,1682086861
105,ushuaia,-54.8,-68.3,276.96,75,75,13.89,AR,1682086862
106,atafu village,-8.5421,-172.5159,301.48,76,24,4.22,TK,1682086862
107,codrington,-38.2667,141.9667,288.5,81,100,1.93,AU,1682086863
108,nar'yan-mar,67.6713,53.087,273.09,99,100,2.21,RU,1682086863
109,ambagarh chauki,20.7833,80.7167,301.27,43,42,1.66,IN,1682086864
110,laguna,38.421,-121.4238,286.22,72,0,2.57,US,1682086864
111,arinos,-15.9169,-46.1056,302.81,40,15,2.55,BR,1682086865
112,hasaki,35.7333,140.8333,291.37,61,100,10.89,JP,1682086865
113,remire-montjoly,4.9167,-52.2667,299.17,89,100,6.69,GF,1682086866
114,tidjikja,18.5564,-11.4271,307.17,11,100,7.13,MR,1682086866
115,isafjordur,66.0755,-23.124,274.17,60,100,4.63,IS,1682086867
116,patan,27.6667,85.3333,292.36,48,75,2.57,NP,1682086867
117,hengchun,22.0042,120.7439,297.26,83,17,6.55,TW,1682086868
118,kone,-21.0595,164.8658,296.76,93,37,1.67,NC,1682086868
119,kerikeri,-35.2268,173.9474,293.1,97,100,1.34,NZ,1682086868
120,chita,52.0333,113.55,265.09,48,43,3.0,RU,1682086869
121,bethel,41.3712,-73.414,291.68,43,0,3.6,US,1682086720
122,bilibino,68.0546,166.4372,261.69,85,59,1.97,RU,1682086870
123,balao,-2.9167,-79.8167,299.15,75,100,0.67,EC,1682086870
124,pemangkat,1.1667,108.9667,300.67,76,96,2.06,ID,1682086871
125,olonkinbyen,70.9221,-8.7187,270.06,59,94,7.2,SJ,1682086871
126,piet retief,-27.0071,30.8132,293.53,52,84,3.51,ZA,1682086872
127,fort mcmurray,56.7268,-111.381,272.92,55,0,3.6,CA,1682086872
128,west island,-12.1568,96.8225,301.14,78,75,6.69,CC,1682086873
129,lagunas,-5.2269,-75.6753,295.23,99,100,0.34,PE,1682086873
130,sukhodol,53.9006,51.2117,287.89,37,100,2.74,RU,1682086874
131,thanh hoa,19.8,105.7667,300.59,69,81,2.83,VN,1682086874
132,viedma,-40.8135,-62.9967,295.38,36,100,6.69,AR,1682086874
133,tura,25.5198,90.2201,293.85,86,35,6.38,IN,1682086875
134,kabompo,-13.5927,24.2008,297.33,68,96,2.34,ZM,1682086875
135,tazacorte,28.629,-17.9293,295.69,74,20,3.58,ES,1682086876
136,geraldton,-28.7667,114.6,290.38,67,100,2.06,AU,1682086876
137,kavieng,-2.5744,150.7967,300.68,81,73,4.58,PG,1682086877
138,aldinga beach,-35.2793,138.4604,289.96,82,0,2.65,AU,1682086877
139,verkhnevilyuysk,63.4453,120.3167,268.08,97,100,1.68,RU,1682086878
140,sydney mines,46.2367,-60.2177,281.01,84,100,8.75,CA,1682086878
141,santa maria,-29.6842,-53.8069,292.76,60,0,3.09,BR,1682086879
142,moussoro,13.6408,16.4901,315.93,7,50,5.57,TD,1682086879
143,invercargill,-46.4,168.35,284.83,82,97,0.89,NZ,1682086880
144,campbellton,48.0075,-66.6727,278.4,60,38,0.55,CA,1682086880
145,longyearbyen,78.2186,15.6401,259.06,56,20,7.72,SJ,1682086881
146,salym,60.0625,71.4789,277.18,91,100,3.01,RU,1682086881
147,saint-joseph,-21.3667,55.6167,300.36,81,41,3.16,RE,1682086881
148,acapulco de juarez,16.8634,-99.8901,300.05,74,40,2.06,MX,1682086809
149,stanley,54.868,-1.6985,282.99,83,20,5.66,GB,1682086635
150,ubinskoye,55.3068,79.6802,276.36,42,69,2.04,RU,1682086883
151,ilulissat,69.2167,-51.1,272.16,69,75,1.54,GL,1682086883
152,shevchenko,48.5,35.0,283.64,75,100,1.79,UA,1682086884
153,crane,31.3974,-102.3501,289.1,33,0,5.77,US,1682086884
154,bhimunipatnam,17.8833,83.4333,302.88,62,76,1.03,IN,1682086885
155,hamilton,39.1834,-84.5333,293.29,71,0,3.09,US,1682086700
156,egersund,58.4513,5.9997,285.04,51,5,1.85,NO,1682086886
157,college,64.8569,-147.8028,274.15,77,75,2.57,US,1682086670
158,akureyri,65.6835,-18.0878,275.11,75,75,6.17,IS,1682086887
159,broome,42.2506,-75.833,294.92,61,69,3.58,US,1682086887
160,san antonio huista,15.65,-91.7667,293.55,49,100,1.29,GT,1682086887
161,la passe,45.5549,-0.8967,292.28,48,100,3.45,FR,1682086888
162,tambura,5.6,27.4667,307.47,27,100,1.7,SS,1682086888
163,sisteron,44.1876,5.9462,290.6,57,100,3.33,FR,1682086889
164,fort bragg,35.139,-79.006,297.84,56,0,2.57,US,1682086642
165,brisas de zicatela,15.8369,-97.0419,300.44,78,0,0.0,MX,1682086890
166,enewetak,11.3474,162.3373,298.3,93,100,6.88,MH,1682086890
167,egilsstadir,65.2653,-14.3948,275.1,80,100,9.77,IS,1682086891
168,karratha,-20.7377,116.8463,298.87,58,100,2.49,AU,1682086891
169,doume,4.2333,13.45,300.84,65,100,2.03,CM,1682086892
170,bredasdorp,-34.5322,20.0403,288.73,49,100,4.51,ZA,1682086892
171,salalah,17.0151,54.0924,303.2,66,20,5.14,OM,1682086892
172,at taj,24.2049,23.2857,306.51,7,0,3.23,LY,1682086893
173,solnechnyy,50.7214,136.6319,271.5,93,100,4.19,RU,1682086893
174,puerto baquerizo moreno,-0.9,-89.6,300.7,89,75,2.06,EC,1682086894
175,wailua homesteads,22.0669,-159.378,293.59,94,100,2.06,US,1682086894
176,nuuk,64.1835,-51.7216,271.49,93,100,2.57,GL,1682086871
177,aroma,15.8167,36.1333,311.72,7,0,4.81,SD,1682086895
178,neman,55.0311,22.0264,290.3,42,59,3.3,RU,1682086895
179,kaga bandoro,6.9896,19.1874,310.48,24,100,1.01,CF,1682086896
180,port lincoln,-34.7333,135.8667,289.22,79,0,2.86,AU,1682086896
181,merrill,45.1805,-89.6835,278.21,80,75,5.66,US,1682086711
182,thunder bay,48.4001,-89.3168,275.14,87,100,2.57,CA,1682086897
183,general roca,-39.0333,-67.5833,293.5,41,100,12.26,AR,1682086898
184,lazaro cardenas,17.9583,-102.2,298.91,67,4,0.58,MX,1682086898
185,kavaratti,10.5669,72.642,302.38,71,100,3.61,IN,1682086727
186,northam,51.0333,-4.2167,284.96,77,71,5.58,GB,1682086899
187,mugia,43.1041,-9.2179,288.24,88,100,8.29,ES,1682086900
188,along,28.1667,94.7667,294.74,73,74,0.65,IN,1682086900
189,chota,-6.55,-78.65,286.61,94,100,1.12,PE,1682086900
190,aweil,8.7682,27.4002,314.83,11,33,2.76,SS,1682086636
191,melioratorov,57.2107,65.6077,286.36,22,0,3.0,RU,1682086901
192,gadzhiyevo,69.2551,33.3362,273.49,80,100,6.06,RU,1682086902
193,argostolion,38.1811,20.489,293.19,64,20,1.54,GR,1682086902
194,trujillo alto,18.3547,-66.0074,303.71,67,40,5.14,PR,1682086903
195,pandan,14.0453,124.1694,299.57,83,99,2.29,PH,1682086903
196,prades,42.5833,2.1667,291.1,32,99,2.07,FR,1682086903
197,sault ste. marie,46.5168,-84.3333,279.31,89,100,3.6,CA,1682086847
198,yeppoon,-23.1333,150.7333,295.03,75,18,9.12,AU,1682086904
199,grand falls-windsor,48.9332,-55.6649,276.21,90,100,3.58,CA,1682086905
200,richmond,37.5538,-77.4603,299.28,50,0,4.63,US,1682086636
201,happy valley-goose bay,53.3168,-60.3315,275.32,80,100,4.63,CA,1682086906
202,colonia,50.9333,6.95,292.62,52,20,5.66,DE,1682086807
203,uturoa,-16.7333,-151.4333,301.14,80,100,8.19,PF,1682086907
204,thompson,55.7435,-97.8558,269.24,54,20,3.6,CA,1682086907
205,chinon,47.1667,0.3333,289.7,53,89,2.77,FR,1682086908
206,paita,-5.0892,-81.1144,299.01,81,100,1.67,PE,1682086908
207,aldama,22.9167,-98.0667,299.7,78,71,2.37,MX,1682086909
208,ribeira brava,32.65,-17.0667,297.43,59,64,4.62,PT,1682086909
209,sorong,-0.8833,131.25,299.98,82,100,2.07,ID,1682086909
210,jieyang,23.5289,116.3642,295.11,86,100,3.06,CN,1682086910
211,kyzyl-mazhalyk,51.1333,90.6,273.59,47,59,2.13,RU,1682086910
212,daloa,6.8774,-6.4502,307.17,43,14,1.9,CI,1682086911
213,hermanus,-34.4187,19.2345,288.6,53,100,2.66,ZA,1682086911
214,korla,41.7597,86.1469,289.47,21,100,4.69,CN,1682086912
215,santiago de cao,-7.9589,-79.2392,299.22,65,100,2.57,PE,1682086912
216,ayabaca,-4.6398,-79.7149,283.08,91,100,1.61,PE,1682086912
217,neiafu,-18.65,-173.9833,298.53,88,40,4.12,TO,1682086913
218,kattivakkam,13.2167,80.3167,305.2,89,1,6.56,IN,1682086913
219,keflavik,64.0049,-22.5624,283.1,70,75,7.72,IS,1682086914
220,muisne,0.6,-80.0333,299.1,80,100,2.21,EC,1682086914
221,vilyuysk,63.7553,121.6247,265.29,95,100,2.05,RU,1682086915
222,manacapuru,-3.2997,-60.6206,300.54,84,100,1.39,BR,1682086915
223,avarua,-21.2078,-159.775,294.18,100,100,1.03,CK,1682086915
224,prakhon chai,14.6059,103.1208,306.38,38,44,3.99,TH,1682086916
225,constantia,44.1833,28.65,285.76,80,100,5.89,RO,1682086806
226,sinabang,2.4803,96.3801,301.04,79,99,1.34,ID,1682086917
227,jiangyou,31.7667,104.7167,288.68,86,100,1.82,CN,1682086917
228,humberto de campos,-2.5983,-43.4611,303.51,65,33,4.02,BR,1682086917
229,ust-nera,64.5667,143.2,267.18,96,100,1.9,RU,1682086918
230,bhind,26.5642,78.7883,306.13,10,51,3.95,IN,1682086918
231,san patricio,28.017,-97.5169,298.12,78,47,3.43,US,1682086919
232,zeya,53.75,127.2667,271.33,74,97,2.54,RU,1682086919
233,the pas,53.8251,-101.2541,271.16,59,75,3.6,CA,1682086919
234,pagar alam,-4.0167,103.2667,294.14,98,100,0.9,ID,1682086920
235,kodiak,57.79,-152.4072,271.88,80,0,2.06,US,1682086920
236,lompoc,34.6391,-120.4579,289.55,55,20,6.69,US,1682086921
237,prince rupert,54.3161,-130.3201,278.98,89,0,6.17,CA,1682086696
238,pisco,-13.7,-76.2167,296.18,78,100,2.57,PE,1682086922
239,bedele,8.456,36.353,300.95,22,99,1.9,ET,1682086922
240,palu,-0.8917,119.8707,298.26,94,89,0.98,ID,1682086922
241,port alfred,-33.5906,26.891,291.58,68,6,2.68,ZA,1682086923
242,kindu,-2.95,25.95,295.83,97,100,1.18,CD,1682086923
243,sierra grande,-41.606,-65.3557,294.76,27,97,8.05,AR,1682086924
244,rurrenabaque,-14.4413,-67.5278,299.09,61,34,3.6,BO,1682086924
245,port augusta,-32.5,137.7667,289.74,72,0,2.87,AU,1682086925
246,sitka,57.0531,-135.33,283.09,43,20,1.54,US,1682086704
247,iguai,-14.7564,-40.0892,297.87,90,99,2.45,BR,1682086926
248,hirara,24.8,125.2833,295.3,78,20,7.2,JP,1682086926
249,roma,43.2128,-75.4557,295.3,50,0,5.66,US,1682086632
250,jaitaran,26.2031,73.9364,303.81,12,1,3.61,IN,1682086928
251,omdurman,15.6445,32.4777,314.78,5,0,6.07,SD,1682086928
252,abepura,-2.6333,140.5833,299.6,89,40,0.0,ID,1682086928
253,linfen,36.0889,111.5189,277.22,94,100,3.88,CN,1682086929
254,zakamensk,50.3741,103.2863,269.92,44,100,1.89,RU,1682086929
255,shimanovsk,52.0,127.7,273.49,59,100,4.66,RU,1682086930
256,musaffah,24.3458,54.5024,303.2,32,0,5.14,AE,1682086930
257,irkutsk,52.2978,104.2964,270.58,54,0,3.13,RU,1682086931
258,opuwo,-18.0607,13.84,290.99,78,100,6.21,NA,1682086931
259,lebu,-37.6167,-73.65,286.88,95,100,2.32,CL,1682086932
260,albertina,-22.2008,-46.6158,292.25,60,0,2.97,BR,1682086932
261,general pinedo,-27.3167,-61.2833,294.25,53,6,3.13,AR,1682086933
262,ertil',51.8406,40.8056,281.92,78,100,6.19,RU,1682086933
263,udachny,66.4167,112.4,259.13,96,93,1.94,RU,1682086934
264,raduzhny,62.0961,77.475,274.64,99,100,3.5,RU,1682086934
265,okakarara,-20.5833,17.4333,295.05,42,100,6.06,NA,1682086935
266,malibu,34.005,-118.8101,292.52,68,4,3.1,US,1682086935
267,thinadhoo,0.5333,72.9333,302.59,70,100,3.18,MV,1682086936
268,sechura,-5.5569,-80.8222,299.42,77,100,0.92,PE,1682086936
269,lianzhou,24.7811,112.3825,297.38,95,59,1.31,CN,1682086651
270,starobaltachevo,56.0013,55.9213,286.32,53,100,2.2,RU,1682086937
271,kourou,5.1552,-52.6478,299.18,93,100,3.59,GF,1682086938
272,sinjai,-5.1241,120.253,297.95,92,98,1.72,ID,1682086938
273,ola,59.5833,151.2833,272.91,81,93,10.35,RU,1682086939
274,batesville,35.7698,-91.641,284.79,93,40,2.06,US,1682086862
275,ishigaki,24.3448,124.1572,295.22,78,20,3.6,JP,1682086940
276,howrah,22.5892,88.3103,306.15,35,75,4.12,IN,1682086940
277,tolanaro,-25.0319,46.9987,301.19,57,20,1.03,MG,1682086940
278,leava,-14.3,-178.1667,301.01,77,25,5.64,WF,1682086941
279,las juntas,19.4167,-104.7,294.89,60,51,0.46,MX,1682086941
280,san matias,-16.3667,-58.4,298.1,59,5,2.02,BO,1682086942
281,bac lieu,9.285,105.7244,302.59,74,97,4.43,VN,1682086752
282,yuxi,24.355,102.5422,294.29,30,1,2.46,CN,1682086943
283,bela,25.9333,81.9833,304.52,23,52,3.82,IN,1682086943
284,kita,13.0349,-9.4895,313.29,10,85,2.4,ML,1682086944
285,burabay,53.0838,70.3138,279.57,42,14,3.76,KZ,1682086944
286,villa de san francisco,14.1667,-86.9667,295.86,50,71,0.97,HN,1682086945
287,klaksvik,62.2266,-6.589,281.66,75,1,0.13,FO,1682086945
288,kandahar,31.0,65.75,296.74,6,0,3.15,AF,1682086946
289,oriximina,-1.7656,-55.8661,303.29,66,33,1.88,BR,1682086946
290,marsh harbour,26.5412,-77.0636,297.19,72,7,5.17,BS,1682086946
291,ciorescu,47.1294,28.8856,282.05,88,100,6.16,MD,1682086947
292,calp,38.6447,0.0445,300.01,50,8,7.99,ES,1682086947
293,harstad,68.799,16.5293,278.24,100,100,12.52,NO,1682086948
294,williston,48.147,-103.618,270.56,81,100,3.58,US,1682086948
295,ulladulla,-35.35,150.4667,286.3,81,2,2.26,AU,1682086949
296,n'zeto,-7.2312,12.8666,300.69,73,100,3.38,AO,1682086949
297,castillos,-34.1667,-53.8333,291.67,57,81,4.04,UY,1682086950
298,kanniyakumari,8.0833,77.5667,302.21,80,35,7.44,IN,1682086950
299,erbil,36.1926,44.0106,298.05,27,40,3.09,IQ,1682086951
300,lautoka,-17.6167,177.4667,298.07,88,75,1.03,FJ,1682086951
301,kristiansund,63.1115,7.732,288.18,43,0,3.09,NO,1682086951
302,rosso,16.4986,-15.8153,305.17,22,98,6.21,SN,1682086952
303,east london,-33.0153,27.9116,292.67,59,0,7.2,ZA,1682086952
304,rajaori,33.3833,74.3,290.94,48,3,1.03,IN,1682086953
305,sao francisco,-15.9486,-44.8644,304.34,47,74,3.75,BR,1682086953
306,i-n-salah,27.1935,2.4607,308.83,9,0,4.63,DZ,1682086953
307,claremont,34.0967,-117.7198,293.2,48,0,2.06,US,1682086954
308,union hidalgo,16.4723,-94.8295,302.24,66,65,4.52,MX,1682086954
309,zhezqazghan,47.7833,67.7667,286.47,30,75,4.0,KZ,1682086955
310,antalaha,-14.9003,50.2788,300.35,80,98,3.42,MG,1682086955
311,lejanias,3.5251,-74.0216,298.81,70,100,1.81,CO,1682086956
312,kayabaglar,37.9825,41.6653,292.44,49,12,2.93,TR,1682086956
313,bonthe,7.5264,-12.505,304.86,51,100,3.71,SL,1682086957
314,port blair,11.6667,92.75,301.46,74,0,3.48,IN,1682086957
315,hithadhoo,-0.6,73.0833,302.56,72,8,3.54,MV,1682086957
316,harnosand,62.6323,17.9379,290.15,93,45,1.7,SE,1682086958
317,ambodifotatra,-16.9833,49.85,300.03,80,24,3.66,MG,1682086958
318,rongelap,11.1635,166.8941,300.05,76,97,8.3,MH,1682086959
319,camiri,-20.05,-63.5167,292.03,72,20,2.57,BO,1682086959
320,daru,-9.0763,143.2092,300.42,81,58,6.37,PG,1682086960
321,malanje,-9.5402,16.341,297.29,76,100,0.97,AO,1682086961
322,gulf shores,30.246,-87.7008,297.07,73,40,3.6,US,1682086961
323,flying fish cove,-10.4217,105.6791,300.69,74,100,7.08,CX,1682086961
324,yaren,-0.5472,166.916,301.59,76,46,4.71,NR,1682086962
325,armavir,44.9892,41.1234,286.7,72,36,8.82,RU,1682086875
326,pestravka,52.405,49.9583,287.18,40,100,5.27,RU,1682086963
327,ain taya,36.7933,3.2869,294.06,52,0,5.66,DZ,1682086964
328,manakara,-22.1333,48.0167,298.88,83,0,3.87,MG,1682086964
329,mbandaka,0.0487,18.2603,296.48,88,100,2.44,CD,1682086964
330,pont rouge,48.8833,-72.0825,275.21,54,99,1.92,CA,1682086965
331,cienfuegos,22.1461,-80.4356,302.23,54,20,2.06,CU,1682086966
332,portstewart,55.1813,-6.714,287.98,68,2,8.43,GB,1682086966
333,presidente dutra,-5.29,-44.49,302.03,72,98,1.74,BR,1682086967
334,chipinge,-20.1883,32.6236,299.18,38,94,1.56,ZW,1682086967
335,xuddur,4.1213,43.8894,307.17,35,95,1.43,SO,1682086968
336,boundiali,9.5217,-6.4869,311.76,24,97,1.79,CI,1682086968
337,bardai,11.65,7.2333,311.22,17,99,4.51,NG,1682086968
338,ancud,-41.8697,-73.8203,286.5,85,86,1.85,CL,1682086969
339,aquidauana,-20.4711,-55.7872,297.24,54,2,3.03,BR,1682086969
340,varna,43.2167,27.9167,288.23,47,20,7.72,BG,1682086970
341,bengkulu,-3.8004,102.2655,299.37,87,100,1.36,ID,1682086970
342,namibe,-15.1961,12.1522,301.41,64,88,5.18,AO,1682086971
343,dunedin,-45.8742,170.5036,284.71,10,0,1.91,NZ,1682086971
344,aras-asan,8.8908,126.3033,299.29,87,100,0.62,PH,1682086971
345,gaiman,-43.2897,-65.4929,292.36,34,70,14.17,AR,1682086972
346,sao jose da coroa grande,-8.8978,-35.1478,302.71,61,50,4.75,BR,1682086972
347,brookings,44.3114,-96.7984,273.34,88,100,11.32,US,1682086973
348,trincomalee,8.5711,81.2335,300.69,80,87,2.87,LK,1682086973
349,sao gabriel da cachoeira,-0.1303,-67.0892,297.04,94,75,1.54,BR,1682086974
350,mossel bay,-34.1831,22.146,290.11,58,99,5.92,ZA,1682086899
351,tornio,65.8481,24.1466,280.16,98,100,3.36,FI,1682086975
352,tosontsengel,48.7567,98.2839,268.75,31,0,1.9,MN,1682086975
353,raduzhnyy,62.0961,77.475,274.64,99,100,3.5,RU,1682086975
354,motueka,-41.1333,173.0167,289.87,99,100,1.17,NZ,1682086976
355,daoukro,7.0591,-3.9631,308.61,39,95,2.07,CI,1682086976
356,york beach,43.1717,-70.6089,283.4,58,84,2.24,US,1682086977
357,taksimo,56.3444,114.8794,266.11,79,75,1.69,RU,1682086977
358,namli,23.4333,75.05,304.59,18,63,4.49,IN,1682086978
359,coquimbo,-29.9533,-71.3436,290.0,77,100,0.51,CL,1682086978
360,nadi,-17.8,177.4167,298.15,88,75,1.03,FJ,1682086979
361,nema,57.5067,50.5011,286.39,37,98,2.11,RU,1682086979
362,diourbel,14.6628,-16.3925,307.7,18,78,5.06,SN,1682086979
363,aioun,16.6614,-9.6149,312.0,8,88,5.22,MR,1682086980
364,chonchi,-42.6128,-73.8092,285.99,86,89,0.66,CL,1682086980
365,okhotsk,59.3833,143.3,271.94,98,100,2.78,RU,1682086981
366,vadso,70.0744,29.7487,274.64,69,75,3.09,NO,1682086982
367,torghay,49.6339,63.4981,287.78,41,77,1.17,KZ,1682086982
368,pariaman,-0.619,100.12,302.18,86,100,0.81,ID,1682086983
369,palikir - national government center,6.9248,158.1611,297.56,94,100,1.54,FM,1682086983
370,las heras,-46.5419,-68.9359,285.79,39,0,8.08,AR,1682086983
371,pakur,24.6333,87.85,307.18,22,100,5.57,IN,1682086984
372,iperu,6.91,3.6656,306.7,49,90,3.84,NG,1682086984
373,patacamaya,-17.2333,-67.9167,285.44,45,57,0.54,BO,1682086985
374,hadibu,12.65,54.0333,302.53,64,36,3.73,YE,1682086985
375,carutapera,-1.195,-46.02,302.95,68,68,4.1,BR,1682086986
376,iskateley,67.6803,53.1512,273.01,99,100,2.2,RU,1682086986
377,soure,-0.7167,-48.5233,301.08,82,40,4.18,BR,1682086987
378,qui nhon,13.7667,109.2333,300.04,88,52,1.41,VN,1682086987
379,rifle,39.5347,-107.7831,273.62,74,100,0.0,US,1682086987
380,galliano,29.4422,-90.2992,296.15,78,40,2.57,US,1682086988
381,al hoceima,35.2433,-3.9309,293.72,64,20,4.63,MA,1682086988
382,la bisbal d'emporda,41.95,3.05,297.52,49,16,8.55,ES,1682086989
383,bathsheba,13.2167,-59.5167,301.49,78,75,6.17,BB,1682086989
384,fale old settlement,-9.3852,-171.2468,301.53,76,43,4.62,TK,1682086990
385,tiebo,14.6333,-16.2333,308.33,17,99,4.23,SN,1682086990
386,sao felix do xingu,-6.6447,-51.995,302.15,72,22,0.85,BR,1682086991
387,sungai penuh,-2.0833,101.3833,292.46,98,99,0.49,ID,1682086991
388,katsuren-haebaru,26.3369,127.8719,295.58,74,100,5.66,JP,1682086992
389,suva,-18.1416,178.4415,298.86,78,75,2.57,FJ,1682086708
390,gao,16.6362,1.637,314.58,7,5,4.25,ML,1682086993
391,east end,34.5507,-92.341,285.67,90,100,0.89,US,1682086994
392,susuman,62.7833,148.1667,263.45,98,99,2.21,RU,1682086994
393,robertsport,6.7533,-11.3686,301.33,67,100,4.47,LR,1682086994
394,shizunai-furukawacho,42.3339,142.3669,278.6,62,0,9.38,JP,1682086995
395,taoudenni,22.6783,-3.9836,307.52,8,21,7.69,ML,1682086995
396,linton,39.0348,-87.1658,282.97,94,100,3.5,US,1682086996
397,libreville,0.3925,9.4537,303.16,66,20,2.06,GA,1682086996
398,rio rico,31.4715,-110.9765,292.22,25,0,1.54,US,1682086997
399,nadym,65.5333,72.5167,273.46,99,100,4.09,RU,1682086998
400,weno,7.4515,151.8468,300.12,83,40,0.0,FM,1682086998
401,usogorsk,63.4106,48.6872,274.42,100,100,2.69,RU,1682086998
402,playas,-2.6333,-80.3833,298.79,83,100,1.33,EC,1682086997
403,punta del este,-34.9667,-54.95,292.02,69,0,3.58,UY,1682086927
404,igarka,67.4667,86.5833,271.41,85,100,5.97,RU,1682087000
405,kuybyshev,55.4475,78.3218,276.86,38,54,2.92,RU,1682087001
406,el achir,36.0639,4.6274,296.09,26,2,3.44,DZ,1682087001
407,sumbe,-11.2061,13.8437,301.77,70,62,3.35,AO,1682087002
408,boden,65.8252,21.6886,283.15,100,100,1.99,SE,1682087002
409,wad medani,14.4012,33.5199,312.7,6,0,5.14,SD,1682086782
410,ixtapa,20.7,-105.2,297.16,68,40,0.0,MX,1682087003
411,revda,56.801,59.9303,281.91,72,100,3.36,RU,1682086802
412,kutum,14.2,24.6667,308.17,6,1,3.05,SD,1682087004
413,saint-pierre,-21.3393,55.4781,300.97,69,100,2.06,RE,1682087004
414,san antonio de pale,-1.4014,5.6325,300.05,79,100,2.42,GQ,1682087005
415,mirny,62.5353,113.9611,258.71,95,22,1.11,RU,1682087005
416,lihue,21.9789,-159.3672,293.92,92,100,2.06,US,1682087006
417,skeldon,5.8833,-57.1333,300.16,86,94,3.76,GY,1682087006
418,kirensk,57.7853,108.1119,267.92,92,100,1.54,RU,1682087007
419,anloga,5.7947,0.8973,302.54,70,100,5.66,GH,1682087007
420,gordon,34.5004,-84.8666,295.27,60,0,2.57,US,1682087008
421,simpang,-1.2667,104.0833,297.59,95,95,1.33,ID,1682087008
422,yangjiang,21.85,111.9667,298.1,94,100,2.27,CN,1682087008
423,morehead city,34.7229,-76.726,298.17,70,0,1.54,US,1682087009
424,tromso,69.6496,18.957,273.36,93,100,4.12,NO,1682087009
425,yala,6.3333,101.25,298.09,92,100,1.11,TH,1682087010
426,holualoa,19.6228,-155.9522,295.06,87,100,2.06,US,1682087010
427,gizo,-8.103,156.8419,300.64,78,51,2.36,SB,1682087011
428,tarauaca,-8.1614,-70.7656,297.51,87,88,1.64,BR,1682087011
429,port-gentil,-0.7193,8.7815,298.13,79,75,2.57,GA,1682087012
430,hilo,19.7297,-155.09,297.19,93,75,0.0,US,1682086791
431,rikaze,29.25,88.8833,283.93,21,100,4.08,CN,1682087012
432,walvis bay,-22.9575,14.5053,294.68,64,75,3.6,NA,1682087013
433,saint-valery-en-caux,49.8667,0.7333,285.24,68,83,3.36,FR,1682087013
434,hermiston,45.8404,-119.2895,282.49,79,0,4.63,US,1682086907
435,tekeli,44.83,78.8239,275.32,63,100,1.47,KZ,1682087014
436,fortuna,40.5982,-124.1573,281.34,79,100,1.42,US,1682087015
437,novyye lapsary,56.0685,47.2142,287.99,33,40,1.0,RU,1682087015
438,manay,7.215,126.5397,298.98,87,100,2.14,PH,1682087015
439,mont-laurier,46.5501,-75.4993,278.94,93,100,3.36,CA,1682087016
440,yamba,-5.9,22.3,298.48,87,100,2.01,CD,1682087016
441,haiku-pauwela,20.9219,-156.3051,297.06,88,0,2.06,US,1682087017
442,swakopmund,-22.6833,14.5333,294.62,86,100,1.34,NA,1682087017
443,tillaberi,14.2117,1.4531,315.42,4,63,3.43,NE,1682087018
444,cadale,2.7603,46.3222,303.23,66,80,6.52,SO,1682087018
445,ribeira grande,38.5167,-28.7,289.69,82,40,8.49,PT,1682087018
446,andergrove,-21.0833,149.1833,297.37,74,9,8.32,AU,1682087019
447,puerto quijarro,-17.7833,-57.7667,300.05,46,3,2.04,BO,1682087019
448,dwarka,22.2394,68.9678,300.64,73,88,6.1,IN,1682087020
449,merizo village,13.2658,144.6691,301.46,85,81,7.81,GU,1682087020
450,itoman,26.1247,127.6694,295.58,78,100,8.75,JP,1682087020
451,shakhun'ya,57.6758,46.6114,286.06,36,70,3.94,RU,1682087021
452,hafar al-batin,28.4328,45.9708,305.47,31,75,4.12,SA,1682087021
453,phongsali,21.6833,102.1058,294.58,37,74,1.28,LA,1682087022
454,t'aebaek,37.1759,128.9889,277.12,69,43,1.12,KR,1682087022
455,dolinsk,47.35,142.8,274.22,85,99,5.61,RU,1682087023
456,buta,2.7858,24.73,303.43,58,100,2.4,CD,1682087023
457,alo,7.4178,6.7371,306.26,52,100,2.88,NG,1682087024
458,wanning,18.8003,110.3967,299.79,91,100,3.53,CN,1682087024
459,mirnyy,62.5353,113.9611,258.71,95,22,1.11,RU,1682087025
460,saipan,15.1355,145.701,300.54,100,40,7.72,MP,1682087025
461,fereydunshahr,32.941,50.121,287.34,18,94,3.34,IR,1682087026
462,pitea,65.3172,21.4794,283.2,98,88,3.6,SE,1682087026
463,kargil,34.5667,76.1,272.53,68,100,3.38,IN,1682087027
464,bashtanka,47.4072,32.4387,284.17,78,100,5.31,UA,1682087027
465,san julian,21.0167,-102.1667,292.51,30,2,1.12,MX,1682087027
466,kingscliff,-28.2667,153.5667,293.0,77,54,6.69,AU,1682087028
467,mazamari,-11.3258,-74.5308,295.22,96,99,0.37,PE,1682087028
468,vila franca do campo,37.7167,-25.4333,289.38,71,86,6.99,PT,1682087029
469,ma'an,26.9775,110.7211,293.73,89,100,4.72,CN,1682087029
470,bedford,52.1346,-0.4663,287.13,72,75,5.66,GB,1682087030
471,waynesboro,38.0685,-78.8895,297.9,45,0,3.09,US,1682086883
472,kailua-kona,19.6406,-155.9956,297.13,86,100,2.06,US,1682087030
473,villa gesell,-37.2639,-56.973,291.51,49,91,7.59,AR,1682087028
474,napasar,27.9667,73.55,304.89,6,0,3.92,IN,1682087031
475,sola,-13.8833,167.55,301.13,75,18,4.9,VU,1682087032
476,demre,36.2537,29.9777,292.68,58,1,3.47,TR,1682087032
477,guayaramerin,-10.8368,-65.3614,299.18,78,20,3.6,BO,1682087033
478,gunjur,13.2019,-16.7339,304.19,48,0,4.63,GM,1682087033
479,poronaysk,49.2167,143.1167,275.22,68,100,10.18,RU,1682087033
480,brady,31.1352,-99.3351,291.13,55,0,7.72,US,1682086768
481,makoua,0.0069,15.6333,298.49,89,100,1.5,CG,1682087034
482,papao,-17.75,-149.55,297.97,84,100,10.29,PF,1682087035
483,dire dawa,9.5931,41.8661,299.83,54,98,4.29,ET,1682087035
484,shangzhi,45.2167,127.9667,276.33,29,8,3.89,CN,1682087035
485,lillehammer,61.1146,10.4674,280.71,97,91,0.85,NO,1682087036
486,semenov,56.7875,44.493,287.45,30,89,3.42,RU,1682087036
487,polyarnyy,69.1989,33.4478,273.83,78,100,5.98,RU,1682087037
488,mitsamiouli,-11.3847,43.2844,301.84,74,21,3.86,KM,1682087038
489,konarka,19.9,86.1167,303.37,39,26,3.03,IN,1682087038
490,halifax,44.6453,-63.5724,282.87,64,20,9.77,CA,1682086793
491,al jawf,29.5,38.75,298.65,20,0,3.5,SA,1682087039
492,tsiombe,-25.3,45.4833,300.8,54,6,4.66,MG,1682087039
493,gwadar,25.1216,62.3254,300.77,76,49,5.61,PK,1682087040
494,ugoofaaru,5.6667,73.0,302.36,64,8,0.93,MV,1682087040
495,cidade velha,14.9167,-23.6167,297.41,64,75,10.29,CV,1682087041
496,shiloh,38.5614,-89.8973,287.49,83,100,0.0,US,1682087041
497,gerash,27.6652,54.1371,302.23,17,13,1.88,IR,1682087042
498,hovd,48.0056,91.6419,273.86,22,5,0.75,MN,1682087042
499,rawson,-43.3002,-65.1023,291.72,39,100,12.06,AR,1682087043
500,cacequi,-29.8836,-54.825,292.98,39,12,5.23,BR,1682087043
501,san rafael,-34.6177,-68.3301,293.47,35,82,5.21,AR,1682086841
502,prairie du chien,43.0517,-91.1412,281.2,49,0,5.66,US,1682087044
503,barra de santo antonio,-9.4047,-35.5072,304.75,57,10,5.19,BR,1682087045
504,south sioux city,42.4739,-96.4136,277.12,66,100,10.73,US,1682087045
505,vera cruz,-12.6333,-41.0333,298.91,64,88,1.7,BR,1682087046
506,auki,-8.7676,160.7034,298.45,86,100,1.81,SB,1682087046
507,wesley,15.5667,-61.3167,300.89,78,40,5.66,DM,1682087047
508,sarikei,2.1167,111.5167,297.48,93,29,0.99,MY,1682087047
509,mount gambier,-37.8333,140.7667,285.87,86,45,0.38,AU,1682087048
510,xilin hot,43.9667,116.0333,281.22,17,90,3.51,CN,1682087048
511,dubbo,-32.25,148.6167,285.22,76,0,4.12,AU,1682086769
512,quellon,-43.1167,-73.6167,285.29,94,75,0.0,CL,1682087049
513,makary,12.5717,14.4666,311.59,15,30,6.63,CM,1682087049
514,cockburn town,21.4612,-71.1419,298.24,77,93,4.27,TC,1682087044
515,al kharijah,25.4514,30.5464,303.63,8,63,7.36,EG,1682087050
516,rondonopolis,-16.4708,-54.6356,298.39,51,0,2.63,BR,1682087050
517,preobrazheniye,42.9019,133.9064,278.45,42,3,5.93,RU,1682087051
518,ta`u,-14.2336,-169.5144,300.69,80,82,8.44,AS,1682087051
519,miri,4.4148,114.0089,300.23,89,40,1.03,MY,1682087052
520,odessa,46.4775,30.7326,284.2,76,100,5.31,UA,1682086907
521,san jose de jachal,-30.2406,-68.7469,291.73,35,12,1.5,AR,1682087053
522,letterkenny,54.95,-7.7333,288.11,56,4,7.64,IE,1682087053
523,orda,57.1951,56.9091,283.45,60,95,1.79,RU,1682087054
524,amga,60.8953,131.9608,263.88,98,92,0.9,RU,1682087054
525,kasane,-17.8167,25.15,305.2,31,40,3.6,BW,1682087055
526,minot air force base,48.4209,-101.3391,271.25,82,75,10.8,US,1682087055
527,manokwari,-0.8667,134.0833,299.24,85,93,3.11,ID,1682087055
528,kiunga,-6.1219,141.2906,296.37,99,100,0.6,PG,1682087056
529,fort st. john,56.2499,-120.8529,273.09,69,40,4.63,CA,1682087056
530,kenora,49.8167,-94.4337,269.69,93,100,6.17,CA,1682087057
531,port macquarie,-31.4333,152.9167,289.76,71,92,5.33,AU,1682087057
532,necochea,-38.5473,-58.7368,291.05,42,100,8.5,AR,1682087058
533,awjilah,29.1081,21.2869,306.16,12,100,7.68,LY,1682087058
534,zwedru,6.0667,-8.1281,307.84,41,82,1.56,LR,1682087059
535,sittwe,20.15,92.9,301.79,81,4,2.06,MM,1682087059
536,broken hill,-31.95,141.4333,287.85,59,0,4.32,AU,1682087060
537,mead,47.7674,-117.3549,276.44,84,100,2.06,US,1682087060
538,tashtyp,52.7939,89.8983,269.83,88,78,1.57,RU,1682087060
539,shahabad,27.65,79.95,305.06,18,41,0.84,IN,1682087061
540,traralgon,-38.1833,146.5333,284.26,99,27,1.02,AU,1682087061
541,cururupu,-1.8283,-44.8683,302.05,78,94,3.03,BR,1682087062
542,fortuna foothills,32.6578,-114.4119,293.83,16,0,4.12,US,1682087062
543,batouri,4.4333,14.3667,302.55,56,100,1.7,CM,1682087063
544,kirkwall,58.9848,-2.9587,283.69,81,20,2.06,GB,1682087063
545,protaras,35.0125,34.0583,294.1,82,2,6.26,CY,1682087064
546,cut-cut primero,15.4667,120.6667,301.86,82,98,0.57,PH,1682087064
547,pirmasens,49.2015,7.6053,291.9,50,23,4.6,DE,1682087065
548,dakhla,23.6848,-15.958,295.16,60,0,6.69,EH,1682087065
549,fort irwin,35.2627,-116.6848,283.05,24,4,1.49,US,1682087066
550,uwajima,33.2238,132.56,289.73,93,100,2.11,JP,1682087066
551,betong,5.7743,101.0723,297.28,97,100,0.36,TH,1682087066
552,dzhankoy,45.7167,34.4,283.92,90,100,2.29,UA,1682086823
553,yazykovo,55.2199,56.1353,286.13,48,100,3.08,RU,1682087067
554,puerto aysen,-45.4,-72.7,285.17,76,75,7.2,CL,1682087068
555,stephenville,32.2207,-98.2023,289.74,51,0,6.69,US,1682087068
556,novodvinsk,64.4165,40.8122,277.01,99,100,2.9,RU,1682086810
557,oyem,1.5995,11.5793,298.05,79,96,1.75,GA,1682087069
558,likiep,9.8251,169.3107,300.27,79,97,8.3,MH,1682087069
559,cangucu,-31.395,-52.6756,293.71,53,51,3.79,BR,1682087070
560,batticaloa,7.7102,81.6924,301.0,80,60,2.18,LK,1682087070
561,naama,33.2667,-0.3167,294.76,21,6,2.69,DZ,1682087071
562,kill devil hills,36.0307,-75.676,298.15,52,0,2.06,US,1682087071
563,trairi,-3.2778,-39.2689,300.69,81,100,3.82,BR,1682086875
564,puerto ayacucho,5.6639,-67.6236,302.76,66,100,0.92,VE,1682087072
565,camargo,27.6667,-105.1667,292.08,12,0,5.67,MX,1682087073
566,havre,49.5833,0.3333,284.37,81,100,5.66,FR,1682087073
567,tipitapa,12.1973,-86.0971,301.16,65,20,5.14,NI,1682087073
568,vanimo,-2.6741,141.3028,298.56,90,56,0.09,PG,1682087074
569,mahikeng,-25.8652,25.6442,300.14,28,40,2.57,ZA,1682087074
570,siwa oasis,29.2041,25.5195,301.1,19,54,6.09,EG,1682086794
571,cozumel,20.5083,-86.9458,302.01,77,75,4.12,MX,1682086818
572,esquina,-30.0144,-59.5272,292.3,41,100,4.61,AR,1682087075
573,vila do maio,15.1333,-23.2167,297.59,76,100,7.56,CV,1682087076
574,greenville,35.6127,-77.3663,299.34,50,0,2.06,US,1682087057
575,burang,30.25,81.1667,263.95,98,81,1.1,CN,1682087077
576,xinmin,41.9908,122.8253,280.65,13,53,2.35,CN,1682087077
577,ha giang,22.8333,104.9833,300.45,66,4,1.78,VN,1682087077
578,monrovia,6.3005,-10.7969,303.02,61,99,4.37,LR,1682086820
579,xinxiang,35.3089,113.8672,282.82,62,100,7.26,CN,1682087078
